osm_id,osm_type,name,longitude,latitude,geom_type
1926545807,nodes,Trường Tiểu học Văn Môn,105.9302477,21.1707596,POINT
5583587721,nodes,SIÊU THỊ TRƯỜNG GIANG,105.9280329,21.1487127,POINT
5841384187,nodes,PTTH Nguyễn Văn Cừ,105.9298453,21.1435382,POINT
4567068389,nodes,nội thất Nam Ninh,105.92052,21.1440674,POINT
6520666988,nodes,Lốp Ô Tô Hải Dương,105.8873312,21.0997473,POINT
7178794304,nodes,,105.8776953,21.1097898,POINT
7178812430,nodes,Cửa Hàng Bánh Mì Diệu Linh,105.876877,21.111277,POINT
7178800458,nodes,,105.8766101,21.1116671,POINT
7178788723,nodes,,105.8766965,21.1114707,POINT
8577357417,nodes,Siêu Thị BRG,105.8768821,21.1114121,POINT
7178813194,nodes,,105.8757447,21.1122125,POINT
9672217192,nodes,,105.8948769,21.1206348,POINT
7178806764,nodes,,105.8714072,21.1124355,POINT
7178793213,nodes,,105.8737131,21.1029332,POINT
7178779824,nodes,Phuong 08,105.8731636,21.1027646,POINT
1868388099,nodes,THCS Thanh Lâm A,105.7184716,21.2063388,POINT
1868388078,nodes,THCS Trưng Vương,105.7183857,21.2135023,POINT
9593243320,nodes,Trường THCS ĐạI Thịnh A,105.7323581,21.1742956,POINT
9593334636,nodes,Trường THCS Trưng Vương - Mê Linh,105.7268947,21.177804,POINT
9593919782,nodes,Trường THCS Mê Linh,105.7308524,21.1649145,POINT
9593919783,nodes,Trường Tiểu Học Mê Linh,105.7307719,21.1641666,POINT
9593533119,nodes,Trường THCS Tráng Việt,105.7409966,21.1490993,POINT
5606457121,nodes,Npp Sơn Tây,105.5053026,21.1522365,POINT
4532462397,nodes,Chợ Đêm,105.5021092,21.1473208,POINT
6751621885,nodes,Quán Lẩu Bò,105.5318517,21.1431758,POINT
1711447442,nodes,Siêu thị Thành Sơn,105.5072008,21.1389727,POINT
1711457407,nodes,Nhà hàng Đông Thành,105.505606,21.1360235,POINT
1711447439,nodes,Nhà Hàng Lâm Ký,105.503133,21.1342272,POINT
4115830290,nodes,Sua Ba Vi,105.5150576,21.1286063,POINT
9593258934,nodes,Trường THCS Vạn Yên,105.6265265,21.2011735,POINT
9593258937,nodes,Trường THCS Tự Lập,105.6555814,21.2180183,POINT
9593275047,nodes,Trường THCS Hoàng Kim,105.686468,21.1701541,POINT
9593298201,nodes,Trường THCS Chu Phan,105.6515764,21.1729283,POINT
9593213817,nodes,Trường THCS Liên Mạc B,105.6630964,21.1804891,POINT
9593213818,nodes,Trường Tiểu Học Liên Mạc B,105.6645148,21.1808212,POINT
9593210638,nodes,Trường THCS Vân Hà,105.6204054,21.1502071,POINT
9593853980,nodes,Trường THCS Vân Nam,105.5999459,21.1469054,POINT
9593207319,nodes,Trường THCS Xuân Phú,105.5808111,21.1450091,POINT
7859836902,nodes,Gốm Sứ Đất Việt,105.5920426,21.1489768,POINT
5610000268,nodes,WinMart+,105.8667574,20.990214,POINT
4851083723,nodes,Nhà Hàng Amato,105.8583374,21.0241627,POINT
6522471585,nodes,Phòng Trưng Bày 54,105.8452441,21.0425366,POINT
11168751400,nodes,Rạng Đông,105.8046724,21.0459742,POINT
11104405788,nodes,,105.8404722,21.0267282,POINT
10856105373,nodes,Chung Trường - Lòng lợn chợ Bưởi,105.8101233,21.0479914,POINT
10848092607,nodes,,105.8092536,21.0482456,POINT
10848092608,nodes,Cháo Niêu,105.8092974,21.0482401,POINT
10245908053,nodes,iMeatU Korea BBQ,105.8241813,21.0269786,POINT
5116302421,nodes,Phở Gia truyền Bát Đàn,105.8463792,21.0336377,POINT
10261572485,nodes,,105.7855236,21.0389055,POINT
10103088449,nodes,Tokachiya Ramen,105.8069828,21.0291169,POINT
11159386676,nodes,Minh Trang Spa,105.415567,21.2074429,POINT
8837577729,nodes,Trường cao đẳng nghề Việt Nam-Hàn Quốc TP Hà Nội,105.8568562,21.175135,POINT
5694054028,nodes,Vin+ Tổ 25 Đ.Anh,105.8443361,21.1708102,POINT
5694009523,nodes,Vin+ 44 Tổ 12 Lâm Tiên,105.8494875,21.1625968,POINT
10980030548,nodes,Trường Trung cấp Y - Dược Cộng đồng Hà Nội,105.832821,21.1119006,POINT
3661034904,nodes,Đại Lý Cặp Sách Chống Gù Lưng Nhật Bản,105.8142997,21.1177127,POINT
3644820386,nodes,Hệ Thống Siêu Thị Mái Ấm Online,105.8142732,21.1183065,POINT
4695893189,nodes,,105.8132744,21.1243678,POINT
8577311117,nodes,Siêu Thị BRG,105.8567809,21.1383517,POINT
5694054121,nodes,Vin+ 53 Cao Lỗ,105.8482194,21.1406942,POINT
5694054027,nodes,Vin+ 38 Đào Cam Mộc,105.8685287,21.1412624,POINT
6120794885,nodes,Siêu Thị Hapro,105.7751531,21.1292221,POINT
10856105375,nodes,,105.8101569,21.047975,POINT
9593210640,nodes,Trường THCS Hữu Bằng,105.6186555,21.0250659,POINT
8516000218,nodes,Q Brows Microblading,105.8162254,21.0031584,POINT
6544108207,nodes,Cửa hàng bánh ngọt Singapore,105.9535467,21.1149286,POINT
6544108210,nodes,Tuktuk Từ Sơn,105.9529273,21.114545,POINT
6544108212,nodes,Nhà hàng bia B40,105.9507703,21.1133074,POINT
6544108211,nodes,Nhà Hàng bia Mambo,105.9512343,21.1135694,POINT
6544108213,nodes,Quán Thắng Lơ Khơ,105.9515844,21.1128821,POINT
6544108214,nodes,Lẩu Cua Đức Béo,105.9515803,21.1127758,POINT
6546414571,nodes,Bún Chả Thanh Hà,105.929219,21.0975613,POINT
9593243322,nodes,Trường THCS Nam Phong,105.9252482,20.7577059,POINT
9593205904,nodes,Trường THCS Hiệp Thuận,105.6334193,21.0735103,POINT
9593207318,nodes,Trường THCS Phượng Cách,105.661131,21.0128064,POINT
8356652530,nodes,,105.7772681,21.0716766,POINT
8356652533,nodes,,105.7772399,21.070877,POINT
8364752379,nodes,,105.7772093,21.0710906,POINT
8361034094,nodes,Nội thất Đức Cường,105.7838565,21.0820271,POINT
8361075492,nodes,"Salon, mỹ phẩm",105.7760249,21.083637,POINT
7844049438,nodes,Cửa hàng Gia dụng,105.9294019,21.1667018,POINT
10749951839,nodes,WinMart+,105.8310138,21.0368913,POINT
6709438259,nodes,Cửa Hàng Mỹ Phẩm Michelia Beauty,105.8437061,21.0200885,POINT
6734132385,nodes,Cửa Hàng Bánh Mì Minh Ngoc,105.8635973,21.0061179,POINT
6144069485,nodes,Siêu Thị Lan Chi,105.8303856,20.9815051,POINT
6681633042,nodes,Quán Rượu La Martiniquaise,105.8674798,21.0596852,POINT
6929060211,nodes,Làng Bia Quán Mộc,105.8651749,21.0397465,POINT
6442982885,nodes,Nhà Hàng Home Kitchen,105.8298665,21.0580844,POINT
8102111531,nodes,Trung Tâm Giải Trí HTCGame,105.8189399,20.9843825,POINT
4178588390,nodes,Nhà Hàng Green Tangerine,105.8537575,21.0326873,POINT
4867426122,nodes,Nhà Hàng Guan Nem,105.8498058,21.0145295,POINT
6356358445,nodes,Nhà Hàng Hanoi 1983,105.8521311,21.0353057,POINT
4264066489,nodes,Bánh Xèo Zòn,105.8557772,21.0312016,POINT
4648364790,nodes,Nhà Hàng Bên Trăng,105.8594528,21.068088,POINT
8440236617,nodes,Cửa Hàng Bánh Rán Cổ Truyền Mật Đường,105.8508998,21.0371669,POINT
6322230586,nodes,Cửa Hàng Áo Dài Kengin,105.8503898,21.0359679,POINT
4905672622,nodes,Phở Sướng,105.8521428,21.0335516,POINT
7690141685,nodes,Quan Bun Dau Trung Huong,105.8539542,21.034058,POINT
12164911001,nodes,Kaede Food Restaurant,105.8502554,21.0167092,POINT
12165016301,nodes,Nhà Hàng  Khiêm,105.849969,21.0143166,POINT
12185671587,nodes,Tiệm kính Daisy,105.8286974,21.0072277,POINT
11211432639,nodes,WinMart+,105.8144034,21.0037104,POINT
11416873269,nodes,WinMart+,105.832658,21.026109,POINT
6520661993,nodes,Lốp Ô Tô Phi Điệp,105.7798843,21.1647602,POINT
8763403938,nodes,Big C,105.7826693,21.1863594,POINT
4007177418,nodes,Đồ Gỗ Tuấn Hường,105.8061734,21.1793802,POINT
11152959979,nodes,,105.7728599,21.0725016,POINT
8347324709,nodes,"nhom6,T01-21, sửa xe Huỳnh Quang",105.7730596,21.0767393,POINT
10258818730,nodes,Cơm Ngon Hà Nội,105.7747002,21.0787502,POINT
10258818733,nodes,Mai Dung,105.7747102,21.0794204,POINT
10258564246,nodes,Bếp 88 - Nộm - Bánh bột lọc - Nem nướng - Đồ ăn vặt,105.7733894,21.0746565,POINT
10258564247,nodes,Fin House - Buffet Lẩu Thái,105.7726866,21.0746505,POINT
10258564261,nodes,Minh Phúc,105.7732972,21.0744266,POINT
10257020082,nodes,Cửa Hàng Nội Thất Gỗ Tuấn Việt,105.7722522,21.0758207,POINT
10255708073,nodes,Cửa Hàng Tâm Thu,105.772644,21.0730713,POINT
10219271548,nodes,tạp hóa Chung Quân,105.7746368,21.0792002,POINT
10219092799,nodes,Store 32,105.7729615,21.0813478,POINT
10219092800,nodes,Hoài Nam,105.7723088,21.081584,POINT
8642895211,nodes,Nhà hàng nướng Trúc ANh,105.7723851,21.0747503,POINT
4695706191,nodes,Cửa Hàng Máy Tính Hồng Nam,105.8149137,21.1188634,POINT
9593205912,nodes,Trường THCS Liên Hiệp,105.6394053,21.0572783,POINT
9028710908,nodes,,105.7836917,21.3881952,POINT
8354742064,nodes,,105.7771671,21.0708993,POINT
8354898474,nodes,,105.7770582,21.0710227,POINT
8447602000,nodes,V24-Đại lý Hương Điệp,105.7795545,21.0641243,POINT
8447602001,nodes,V25-Cơm bình dân,105.7795256,21.0642169,POINT
9593623733,nodes,Trường THCS Việt Long,105.9151495,21.247219,POINT
9593862340,nodes,Trường THCS Đức Hòa,105.8764094,21.2299403,POINT
9593268461,nodes,Trường THCS Xuân Thu,105.8942978,21.1951001,POINT
9593862345,nodes,Trường THCS Kim Lũ,105.8916867,21.2054166,POINT
5575925625,nodes,,105.8498142,21.2302584,POINT
5570980322,nodes,,105.8496026,21.2295745,POINT
8961553518,nodes,"Vinmart + 67 Phú Minh, Sóc Sơn",105.8233685,21.1983835,POINT
9593243319,nodes,Trường THCS Quang Minh,105.7716428,21.202269,POINT
10979898123,nodes,Trường THPT Mạc Đĩnh Chi,105.7614496,21.2261029,POINT
9593887413,nodes,Trường THCS Tân Dân,105.7412949,21.2432096,POINT
6520610594,nodes,Lốp Ôtô Phượng Hạnh,105.719117,21.2352817,POINT
10976890605,nodes,Câu lạc bộ Toán Hà Nội HMC,105.7992324,20.9994787,POINT
6346505980,nodes,Nhà Hàng King BBQ,105.7613852,21.0362704,POINT
4450138703,nodes,Nhà Hàng Hoàng Minh,105.7836814,20.9791012,POINT
3813789573,nodes,Cửa Hàng Spa Eros,105.7882242,20.9698086,POINT
8361034086,nodes,Cửa Hàng Cắt Tóc Đức Sài Gòn,105.7846272,21.0816893,POINT
4250943347,nodes,Cửa Hàng Thời Trang Davi,105.7987333,21.0156007,POINT
8360818000,nodes,Quán Huân Béo,105.7783007,21.0827687,POINT
6672382904,nodes,Circle K,105.7757033,21.0448824,POINT
7467256832,nodes,Trung Tâm Đào Tạo Quốc Tế CIE-PTIT,105.7874957,20.9807057,POINT
6813546275,nodes,Cửa Hàng Thời Trang An Phước,105.7702785,20.9684376,POINT
4652770792,nodes,Sữa tắm trẻ sơ sinh,105.7985343,21.0251245,POINT
5546867021,nodes,WinMart+,105.807751,21.047079,POINT
6776142185,nodes,WinMart+,105.7214343,21.0090392,POINT
12161473574,nodes,WinMart+,105.7953306,20.9981224,POINT
12189519279,nodes,WinMart+,105.7719095,21.0224158,POINT
12213546998,nodes,WinMart+,105.7841684,20.9292022,POINT
12240739572,nodes,Tops Market,105.7563084,20.9657517,POINT
5485771446,nodes,Đà Nẵng Quán Bánh Tráng,105.7997636,21.0161503,POINT
6682508516,nodes,Nhà Hàng Grill Mapa,105.7997975,21.0163305,POINT
12245679309,nodes,Le Monde Steak,105.8009193,21.0155514,POINT
12241087810,nodes,Cơm gà Mạnh Hoa,105.8005144,21.0153818,POINT
12189519278,nodes,WinMart+,105.7876146,20.9599646,POINT
4532462398,nodes,,105.4986827,21.1449506,POINT
9952063518,nodes,,105.7929888,21.2177821,POINT
9952063517,nodes,Souveniers,105.791764,21.2180648,POINT
9952063519,nodes,El Domo restaurant and bar,105.79273,21.2181197,POINT
6255402285,nodes,,105.7800206,21.2157115,POINT
11103970205,nodes,,105.7707892,21.2210397,POINT
9593264118,nodes,Trường Tiểu Học Hiền Ninh,105.7893638,21.247173,POINT
9593264117,nodes,Trường THCS Hiền Ninh,105.7900505,21.247329,POINT
9593285981,nodes,Trường THCS Quang Tiến,105.8062253,21.2384391,POINT
10213928867,nodes,cửa hàng gốm sứ Hải Yến,105.7729284,21.0805173,POINT
8333089567,nodes,bách hóa,105.7725963,21.0714818,POINT
8345299046,nodes,shop bán giày,105.7722507,21.074806,POINT
8353977343,nodes,Xổ số tự chọn VIETLOT,105.7728631,21.071635,POINT
8370443703,nodes,Trung Tâm Gaming Kutit,105.7731091,21.0716367,POINT
10258564242,nodes,Tonight Hair Salon,105.771136,21.0714067,POINT
10258564244,nodes,1992 Quán,105.7731845,21.0746994,POINT
10258564257,nodes,Hoàng Phi,105.7721488,21.0747345,POINT
10258564263,nodes,may đo Bảo Thy,105.7736958,21.0740347,POINT
10255708074,nodes,Bee.nails,105.7731949,21.0716852,POINT
10255708076,nodes,Ngân Hà Food,105.7728563,21.0716205,POINT
10255708079,nodes,Cửa Hàng Rẻ Lắm,105.7729563,21.0717821,POINT
10255177796,nodes,Bún bò Huế chất,105.7741668,21.0739421,POINT
10255192016,nodes,Bún Riêu cá Trường Sa,105.7743949,21.0739618,POINT
10219092797,nodes,ARQN Studio,105.7731315,21.0810009,POINT
10166537658,nodes,,105.7615765,21.0675288,POINT
3294741139,nodes,Nhà Hàng La Bicicleta - Barcelona Bistro,105.8273413,21.061389,POINT
6916344470,nodes,Cửa Hàng Đồ Trẻ Em Mia Kids,105.91058,21.0655536,POINT
6138494585,nodes,Siêu Thị Happy Mart,105.8975194,21.0623263,POINT
8346039058,nodes,"nhom6,T01-8, Lẩu lòng bò 32",105.7748909,21.0775877,POINT
6850834185,nodes,Ô mai Hồng Lam Hàng Than,105.8475335,21.0404928,POINT
7813034099,nodes,Tiến Tâm,105.7813071,21.061233,POINT
6630407485,nodes,Tops Market,105.8085208,20.9832736,POINT
9593207321,nodes,Trường THCS Yên Trung,105.4216912,21.0011075,POINT
8550864696,nodes,Nhà hàng Bản Coốc Garden,105.3258369,21.0662181,POINT
9979214770,nodes,,105.3757471,21.0862607,POINT
9593381054,nodes,Trường THCS Tân Dân - Phú Xuyên,105.8701668,20.7423908,POINT
11159140881,nodes,,105.412872,21.2113542,POINT
11159386704,nodes,Đồ gỗ mỹ nghệ Anh Sơn,105.4138429,21.2094003,POINT
11159390605,nodes,,105.4139177,21.2093077,POINT
8911759234,nodes,WinMart+,105.8128848,20.9878691,POINT
9931539948,nodes,La Floresta,105.8360893,21.0276221,POINT
4806919622,nodes,Nhà Hàng High Way 4,105.8549965,21.0336298,POINT
6026346985,nodes,Ga Ra Ô Tô Long Biên,105.9380319,21.0129242,POINT
4364361735,nodes,Nhà Hàng & Cà Phê EMM's,105.8223488,21.0270627,POINT
8360852078,nodes,Quán Huy Hoàng,105.7782939,21.0827217,POINT
4523072389,nodes,Cơm Chay Sala Quán,105.8290578,21.0383505,POINT
6413826385,nodes,Nhà Hàng Chay Tuệ Giác,105.8250572,21.016337,POINT
4151407589,nodes,Bún Chẳ Đắc Kim,105.8472795,21.0310565,POINT
5776461615,nodes,Cửa Hàng Thời Trang Bồng Bềnh,105.8008782,21.0703089,POINT
6813546250,nodes,Cửa Hàng Thời Trang An Phước,105.852931,21.023654,POINT
12105870163,nodes,Áo dài Quỳnh Anh,105.8512108,21.0164755,POINT
12116601426,nodes,DeThia,105.8495133,21.0183826,POINT
5609998748,nodes,WinMart+,105.8144167,21.0272458,POINT
5710048627,nodes,WinMart+,105.8118142,20.9857746,POINT
6659047609,nodes,WinMart+,105.8511002,21.0055964,POINT
6691245500,nodes,WinMart+,105.822345,21.0270182,POINT
5609999998,nodes,WinMart+,105.8454402,21.0009096,POINT
6684445994,nodes,WinMart+,105.7778293,21.0110036,POINT
12118006232,nodes,WinMart+,105.8139845,20.9913859,POINT
11093570340,nodes,Tôn Hoa Sen,105.4032351,21.2148372,POINT
11093570346,nodes,Gara Ôtô Kim Thành,105.40303,21.2149777,POINT
11093689653,nodes,,105.3565721,21.2328119,POINT
11093689620,nodes,Nhà hàng Việt Hoàng,105.3568835,21.2327278,POINT
11093689625,nodes,,105.3568356,21.2327453,POINT
11093669195,nodes,,105.3570026,21.2327175,POINT
11093721472,nodes,Trường An Mobile,105.3557601,21.2331053,POINT
11093657759,nodes,Cửa hàng Phong Hường,105.3562669,21.2329235,POINT
11093689652,nodes,Nhà hàng Anh Vũ,105.3564852,21.2329277,POINT
11093749825,nodes,,105.3554614,21.2332041,POINT
11093789974,nodes,Sửa xe Ngọc Thành,105.3549012,21.2333805,POINT
11093669126,nodes,Công ty MTV TNHH 966,105.3530511,21.2335873,POINT
11093789975,nodes,Bích Dung Kids Shop,105.3548043,21.2334619,POINT
11093789979,nodes,Nấm Mobile,105.3547319,21.2334313,POINT
9109702917,nodes,Trường Đại học công nghiệp dệt may Hà Nội,106.0093056,21.0293821,POINT
5164292621,nodes,Thu hiền,105.707577,21.0694468,POINT
5175691021,nodes,Phương linh,105.718709,21.0647177,POINT
9593205915,nodes,Trường THCS Phụng Thượng,105.5828178,21.0930363,POINT
5175766622,nodes,Nhung hợi,105.6429802,21.0753217,POINT
5182828524,nodes,Vân dũng,105.6644786,21.0773915,POINT
4596501391,nodes,Gara Ô Tô LT,105.6926114,21.0778674,POINT
9593179006,nodes,Trường THCS Đan Phượng,105.6678223,21.0907085,POINT
5175700021,nodes,Việt hải,105.6644748,21.0866982,POINT
4115830291,nodes,Pho Co BaVi,105.6797269,21.0811234,POINT
9593381052,nodes,Trường THCS Phương Đình,105.647789,21.1027792,POINT
4388704190,nodes,Cửa Hàng ĐTDĐ Hoàng Hà,105.4047292,21.1136142,POINT
4585592694,nodes,Cửa Hàng Thời Trang Chuyên Hoàng,105.3804937,21.1194402,POINT
9593853985,nodes,Trường THCS Cần Kiệm,105.5817488,21.0164989,POINT
10678143866,nodes,Trường THPT FPT,105.5234537,21.0133844,POINT
7919363001,nodes,Ninh Ngoan,105.5523505,21.0172153,POINT
7919363002,nodes,Thái Tuyết,105.5515364,21.0194949,POINT
5475930399,nodes,Vân Hiền,105.5513063,21.0203043,POINT
7924855348,nodes,Dũng Barbershop,105.5513227,21.0199272,POINT
8042087441,nodes,Quán Chú Béo,105.5515173,21.0195732,POINT
9377994036,nodes,Cửa Hàng Bún Bẩy Cường,105.5173704,21.0296472,POINT
7928430165,nodes,Quang Hướng,105.5214099,21.0265965,POINT
9844633824,nodes,Chợ Hòa Lạc,105.5188858,21.02722,POINT
9593258943,nodes,Trường THCS Kim Quan,105.5764802,21.0482113,POINT
7919363054,nodes,,105.5818024,21.0511324,POINT
9593381059,nodes,Trường THCS Liên Quan,105.576266,21.0563149,POINT
10080990017,nodes,Winmart+ TT Liên Quan,105.5765273,21.0612788,POINT
9593853984,nodes,Trường THCS Lại Thượng,105.5580081,21.0707533,POINT
9593662298,nodes,Trường THCS Sơn Đông,105.5090267,21.0810149,POINT
9593210625,nodes,Trường THCS Cẩm Yên,105.5423717,21.0869391,POINT
11212248141,nodes,Cơm tấm sườn nướng,105.784293,21.0479495,POINT
11211967775,nodes,Spa Mai Lê,105.7841769,21.0485018,POINT
5485647547,nodes,Bò Tơ Quán Mộc,105.7850989,21.0503921,POINT
7027695685,nodes,,105.7893737,21.0518605,POINT
10241408809,nodes,,105.8538975,21.0327309,POINT
5583575123,nodes,WinMart+,105.8519181,21.0373511,POINT
12096414253,nodes,MET Vietnamese Restaurant & Vegan,105.850347,21.0328495,POINT
2859940473,nodes,cửa hàng Flamingo Motorbike Tours / Rentals,105.8530238,21.0349695,POINT
11832133555,nodes,Htech Home,105.848486,21.1404568,POINT
11832164572,nodes,Kính thuốc Hồng Thái,105.8487532,21.1403866,POINT
4749120823,nodes,Old Propaganda Posters,105.8536598,21.0338375,POINT
5415928129,nodes,,105.8515281,21.0358882,POINT
11671721835,nodes,Le Quynh,105.8494031,21.0362322,POINT
11671729527,nodes,Laundree,105.8482026,21.0354484,POINT
11671752242,nodes,Hanoi Croisssant & Coffee,105.848216,21.0353689,POINT
11671755942,nodes,Cafe 20,105.8499776,21.0365183,POINT
10694242506,nodes,,105.8528862,21.0366958,POINT
10806702305,nodes,,105.8530115,21.0366384,POINT
11656924767,nodes,Chi Mai,105.8516372,21.0372753,POINT
11617830470,nodes,,105.8536454,21.0335627,POINT
5474557523,nodes,Chè Bốn Mùa,105.8494131,21.0351057,POINT
6989702285,nodes,,105.849202,21.0355708,POINT
11491397157,nodes,Chả Cá Lã Vọng,105.8491519,21.0356844,POINT
5419667022,nodes,Hoàng Long Bus Company,105.8516517,21.0386991,POINT
6466626246,nodes,V-Cuisine,105.8513089,21.0349195,POINT
6992010985,nodes,BRGMart,105.8514825,21.0388642,POINT
6850820499,nodes,Ô mai Hồng Lam Hàng Đường,105.8495982,21.0366359,POINT
11110071706,nodes,,105.853451,21.0355328,POINT
10298693327,nodes,Quán Cô Nhàn,105.8515432,21.0364653,POINT
6484939588,nodes,,105.8534433,21.035679,POINT
5144954321,nodes,Nhà Hàng Ẩm Thực Ba Miền,105.8520421,21.0353161,POINT
11371431369,nodes,Quán Little Hà Nội,105.8489505,21.0302188,POINT
4296008295,nodes,Cửa Hàng Bánh Gối,105.8491696,21.0296996,POINT
9252326417,nodes,Bánh Cuốn Bà Hạnh,105.8487211,21.0290384,POINT
10871003625,nodes,La badiane,105.8430715,21.0266407,POINT
4806921821,nodes,Nhà Hàng Ahimsa,105.8422981,21.0296651,POINT
7168561626,nodes,Sadhu,105.8424463,21.0255335,POINT
9593258939,nodes,Trường THCS Yên Sơn,105.6608902,21.0053205,POINT
9593258926,nodes,Trường THCS Bình Phú,105.6068301,21.0241425,POINT
9593205909,nodes,Trường THCS Chàng Sơn,105.6013637,21.0382704,POINT
5199686023,nodes,Phượng mai,105.6002019,21.0383346,POINT
9593853983,nodes,Trường THCS Minh Hà (Canh Nậu),105.611194,21.0494088,POINT
9593207323,nodes,Trường Tiểu Học Minh Hà,105.6116424,21.0519452,POINT
9593205913,nodes,Trường THCS Phúc Hòa,105.554218,21.1090263,POINT
3844123780,nodes,Siêu Thị Xe Đạp Điện Thành Tuyến Sơn Tây,105.499349,21.1213151,POINT
3844127179,nodes,Siêu Thị Điện Máy Thành Tuyến - Sơn Tây,105.4991669,21.1210538,POINT
7074068386,nodes,Siêu Thị Lan Chi,105.4970012,21.0982919,POINT
11400892846,nodes,WinMart+,105.7753819,21.0288397,POINT
11176022617,nodes,MediaMart,105.7791547,21.0311719,POINT
11176022918,nodes,WinMart+,105.7774193,21.0294303,POINT
10691121371,nodes,Minori,105.8090094,21.0294025,POINT
10621408649,nodes,Puma,105.8148671,21.0313898,POINT
10129864868,nodes,Itaewon Dakgalbi,105.8066682,21.0291148,POINT
11675985408,nodes,Phố nướng xứ Lạng,105.8467609,21.0390476,POINT
11804627469,nodes,ThTrue,105.8472535,21.0385867,POINT
11683982770,nodes,Shop Huyền Linh,105.8472735,21.0393908,POINT
11683982771,nodes,,105.8472747,21.0393391,POINT
11683982772,nodes,"Dây lưng, ví da",105.8472548,21.0392977,POINT
11683982773,nodes,Huy Bontique,105.8472547,21.0392715,POINT
11683982775,nodes,Lẩu dê Nhất Ly,105.8472791,21.0391463,POINT
11683982777,nodes,Long Wang,105.847282,21.0390195,POINT
11683982785,nodes,Gấu Bông,105.8478376,21.0395989,POINT
11683982788,nodes,,105.8478758,21.039507,POINT
11683982789,nodes,,105.8478879,21.039478,POINT
11683982794,nodes,,105.8479739,21.039271,POINT
11683982795,nodes,Bà Hoa Lẩu nướng,105.847993,21.0392252,POINT
11655364816,nodes,Benrick Boutique,105.8470282,21.0392445,POINT
11675985402,nodes,"Bún đậu, giả cày",105.8468471,21.0394364,POINT
11675985407,nodes,Nhà hàng Đồng Đội,105.8467824,21.0391319,POINT
11675985412,nodes,Lươn đồng xứ Nghệ,105.846697,21.0387025,POINT
11675985414,nodes,,105.8470403,21.0394745,POINT
11675985423,nodes,Pullman - W.M. Store,105.8470397,21.0391097,POINT
11675985426,nodes,Mỹ phẩm Authentic,105.8470376,21.0389807,POINT
11675985428,nodes,Nhà hàng Bít tết Ngọc Hiếu,105.8470315,21.0388393,POINT
11655427673,nodes,Hill Top Curry,105.8474529,21.038279,POINT
5524406424,nodes,WinMart+,105.8352243,20.9793506,POINT
5609999990,nodes,WinMart+,105.8427343,20.9783949,POINT
11195238237,nodes,WinMart+,105.8362774,20.9782953,POINT
12085505830,nodes,WinMart+,105.8499747,20.9404017,POINT
6643987643,nodes,,105.8337879,20.9654358,POINT
11402498931,nodes,WinMart+,105.8274936,20.9637911,POINT
9683275501,nodes,Mykingdom,105.8264585,20.9674323,POINT
6794340541,nodes,Siêu Thị Minh Đức Green,105.8296484,20.9706077,POINT
11203078941,nodes,VinFast,105.634286,21.0038247,POINT
8197311959,nodes,Sunshine Heritage Resort,105.6141552,21.0897788,POINT
5546978224,nodes,WinMart+,105.8249443,21.068251,POINT
6354097485,nodes,Nhà Hàng Dragoncello,105.811293,21.0668069,POINT
12076471652,nodes,WinMart+,105.7959189,21.071349,POINT
12076471653,nodes,WinMart+,105.7948572,21.0637502,POINT
12000107441,nodes,V33-Bún chả 309,105.7793907,21.0649573,POINT
6067805285,nodes,An Lac Chay,105.8245151,21.0626442,POINT
10257020074,nodes,Photocopy và chụp ảnh thẻ lấy Ngay,105.7735312,21.0747541,POINT
10254828329,nodes,Quán bún Bắc Bằng,105.7728348,21.0727417,POINT
11478728726,nodes,Eggmong Sandwiches,105.8247358,21.068442,POINT
11475342476,nodes,Café Restaurant Thung Lung Hoa,105.8211946,21.0729786,POINT
11395792669,nodes,,105.8241728,21.0629487,POINT
11190957377,nodes,Cua hang banh sinh nhat,105.7848148,21.0560056,POINT
11070385170,nodes,,105.7833098,21.0587332,POINT
11169410908,nodes,,105.7834069,21.0580838,POINT
11169202606,nodes,Nông sản fruit,105.7820406,21.0650234,POINT
11152959981,nodes,siêu thị 24/7,105.7732193,21.0722689,POINT
11152960193,nodes,quán phở,105.7768947,21.0682912,POINT
8355086211,nodes,Vision,105.7732196,21.0747519,POINT
10219271556,nodes,store usa,105.7747424,21.0785263,POINT
10240244251,nodes,"345",105.7756127,21.078169,POINT
10258564250,nodes,Tươi Snaker,105.7731601,21.0744246,POINT
10258564259,nodes,sữa+,105.7732308,21.0744146,POINT
10258564264,nodes,mẹ&bé,105.7734215,21.0744046,POINT
10255708078,nodes,Lumière A B Sneaker Store,105.7730641,21.0716349,POINT
10255708086,nodes,Nước hoa Lành Vũ,105.7770538,21.0710972,POINT
10255708098,nodes,Camera-man,105.7730662,21.0714238,POINT
10240244245,nodes,Lẩu I One,105.7771866,21.0742564,POINT
10219271549,nodes,cơm ngon Hà Nội,105.7745595,21.0785795,POINT
10219271555,nodes,,105.7752891,21.0784354,POINT
6610600974,nodes,Trung Tâm Hội Nghị Tiệc Cưới Forevermark,105.8159137,21.0755172,POINT
5609998383,nodes,WinMart+,105.8637092,21.0030661,POINT
5609999960,nodes,WinMart+,105.8683539,20.9940542,POINT
12088411623,nodes,Dãy nhà thương mại LePARC (Trung tâm thương mại LePARC),105.8594279,20.9618475,POINT
5609998355,nodes,WinMart+,105.8692088,21.0030924,POINT
11201386737,nodes,WinMart+,105.8606172,20.9887096,POINT
11768045210,nodes,Nhà Hàng Sake,105.8737005,20.9922521,POINT
11652855477,nodes,Phở Dũng cơ sở 3,105.8741185,20.9959296,POINT
5534998122,nodes,WinMart+,105.8730925,20.9991371,POINT
11645056602,nodes,Circle K,105.87229,21.0002335,POINT
11633541280,nodes,Cửa hàng nội thất Uyên Nhi,105.8959465,20.9700724,POINT
11559494805,nodes,VGA Mobicar,105.8669002,20.9703325,POINT
11490090169,nodes,Hoàng Hiếu,105.8891401,20.9788349,POINT
11362154952,nodes,J Spa & Massage,105.8561146,21.0055309,POINT
8784791199,nodes,Cửa Hàng Thẩm Mỹ Dr Pluscell,105.8703136,20.999642,POINT
4776519921,nodes,Cửa Hàng Bánh Kẹo Thanh Hà,105.86433,21.008424,POINT
6606142441,nodes,Nhà Hàng Hồ Tây Sushi,105.8180573,21.0444866,POINT
6850832694,nodes,Ô mai Hồng Lam,105.8282199,21.0346846,POINT
7967753582,nodes,Cửa Hàng Clever Changes,105.8201847,21.0419654,POINT
12068379433,nodes,Cửa hàng Bia hơi Hà Nội,105.8216323,21.0417403,POINT
11806446769,nodes,Bún bò huể Nhân Khôi,105.8278136,21.0346094,POINT
12022604778,nodes,Homefarm,105.8256061,21.0347864,POINT
11919147369,nodes,Lẩu nấm thiên nhiên,105.8272194,21.0342468,POINT
5003334128,nodes,,105.8209099,21.0351829,POINT
12063757631,nodes,May de Cuisine,105.8535075,21.0340257,POINT
4709634891,nodes,Nhà Hàng Hồng Hoài,105.8474622,21.0337915,POINT
11843128370,nodes,Giặt là cao cấp,105.8470439,21.0344555,POINT
11049145306,nodes,,105.8472647,21.0336884,POINT
11671828321,nodes,Hai Yen,105.8521493,21.034911,POINT
11671842647,nodes,Thinh Vuong,105.8521,21.0350998,POINT
4796008021,nodes,Stainless Rack Welding Shop,105.8481057,21.0361468,POINT
11652706835,nodes,Inkonic,105.8521227,21.0360505,POINT
4366360798,nodes,Pho Ga,105.8505627,21.0354335,POINT
7181130685,nodes,Kaoya,105.8504975,21.0355373,POINT
11422445326,nodes,IVEGAN Supershop,105.8496292,21.0353466,POINT
10557047310,nodes,Banh cuon Gia truyen Thanh van,105.8470584,21.036263,POINT
4902370021,nodes,,105.8470959,21.0338642,POINT
11989415196,nodes,Chợ Baza,105.9408587,21.0857314,POINT
9931536228,nodes,Tien Dat,105.8540437,21.031467,POINT
5485754721,nodes,Ô mai Hồng Lam Nguyễn Chí Thanh,105.8110502,21.0251334,POINT
6610502429,nodes,Nhà Hàng Jewel Diner,105.8163328,21.0766766,POINT
6520653785,nodes,Nhà Hàng Fresh Crab,105.8483076,21.0206055,POINT
8631526113,nodes,Cháo Lòng Phố Cổ,105.8520965,21.0360382,POINT
5474690735,nodes,Cửa Hàng Bánh Mì Cười - Nam Đồng,105.8330632,21.0135702,POINT
9593474595,nodes,Trường THCS Cao Thành,105.7352232,20.7648116,POINT
9593210641,nodes,Trường Tiểu học Hữu Bằng,105.6187994,21.025676,POINT
4725374790,nodes,TH True Mart,105.8454849,20.9813125,POINT
8354756783,nodes,,105.7772691,21.0707826,POINT
8356629208,nodes,,105.7776011,21.0704988,POINT
8929710417,nodes,K-Market,105.7861003,20.9871963,POINT
8747127389,nodes,Nhà thuốc 37D Văn Miếu,105.8363665,21.0282088,POINT
8447601997,nodes,V21-Ánh Ngọc Nails,105.7796682,21.0637859,POINT
8346010306,nodes,"nhom6,T01-6, Út Nướng",105.7750315,21.077623,POINT
7843976764,nodes,Circle K,105.8465426,21.0016115,POINT
1858361604,nodes,PHÚC YÊN PLAZA,105.7064471,21.2404629,POINT
9028828744,nodes,,105.8670242,21.3375317,POINT
9028828743,nodes,,105.8681275,21.3382333,POINT
9028828742,nodes,,105.867003,21.3389249,POINT
9028828727,nodes,,105.8733504,21.3638581,POINT
9028828739,nodes,,105.8673589,21.3521038,POINT
9593268459,nodes,Trường THCS Thị Trấn Sóc Sơn,105.8512269,21.2603191,POINT
5106792422,nodes,Hà Thành,105.4342835,21.3055866,POINT
6520610595,nodes,Đường Lợi,105.428512,21.303646,POINT
3937714031,nodes,Pet Mart Kim Mã,105.8246645,21.0318491,POINT
7999480277,nodes,Hoa Nhà Min - Cửa Hàng Hoa Tươi Nghệ Thuật,105.8271814,21.0298681,POINT
11409068697,nodes,Hải Sư - Cơm Niêu Singapore,105.8244082,21.0270456,POINT
11614903225,nodes,HeraDG,105.7823241,21.0371731,POINT
11618650223,nodes,VN Book Store,105.7822519,21.0368697,POINT
11618650229,nodes,Phụ kiện điện thoại,105.7824399,21.0368654,POINT
11618650235,nodes,Nhà sách Sư phạm,105.782983,21.0368596,POINT
11400892847,nodes,WinMart+,105.7710323,21.0325694,POINT
12073089631,nodes,Điện dân dụng Oanh Khánh,105.8440774,21.0302266,POINT
12078106240,nodes,34 Railway,105.8449371,21.0316301,POINT
12078112266,nodes,,105.8442839,21.0303945,POINT
12078122290,nodes,Hanoi Happy Tour,105.8444437,21.0305652,POINT
11772837269,nodes,Kính 8989 eyewear,105.8453632,21.0286934,POINT
11609621388,nodes,Chả Cá Thăng Long,105.8460186,21.0329467,POINT
11491405059,nodes,Chả Cá Thăng Long,105.8461226,21.032965,POINT
5795904835,nodes,Nhà Hàng Grandma's,105.8461542,21.0328985,POINT
6448043685,nodes,Nuoc Mia,105.8454024,21.030141,POINT
6204697285,nodes,Cửa Hàng Bánh Mì Pháp Anh Hoa,105.8445856,21.0298851,POINT
11958131400,nodes,Trường Cao đẳng Công nghệ Bách khoa Hà Nội,105.7706579,21.0227139,POINT
12033021597,nodes,Hà Đăng Mart,105.7825427,21.0151651,POINT
9265542534,nodes,WinMart+,105.7734088,21.0271177,POINT
11400892848,nodes,WinMart+,105.7699526,21.0294832,POINT
5610000235,nodes,WinMart+,105.7745256,21.0314391,POINT
6658577897,nodes,WinMart,105.7686733,21.028304,POINT
10211329493,nodes,Circle K,105.7790565,21.017914,POINT
11821698442,nodes,,105.9533631,21.0165706,POINT
5608880705,nodes,PNJ,105.395837,21.31228,POINT
4210454309,nodes,Quán Sông Hàn,105.399021,21.3116462,POINT
6520653703,nodes,Hải Yen Săm Lốp,105.4252297,21.2998424,POINT
12074497269,nodes,Thủy Anh Fruits,105.8471307,21.0365087,POINT
10860208391,nodes,Phở bò Đức Khôi,105.8462128,21.0364989,POINT
11683507069,nodes,Phở Tư lùn,105.8475526,21.0365868,POINT
11345867151,nodes,Bánh Cuốn Nong,105.8470263,21.0367029,POINT
12091473430,nodes,EuroStyle,105.8395092,21.029227,POINT
12092826927,nodes,La Casa,105.8368894,21.0319835,POINT
12092826928,nodes,An Nhiên,105.8370555,21.0319363,POINT
12092826929,nodes,Giang Restaurant,105.8368576,21.0318993,POINT
7176890539,nodes,,105.835957,21.0290344,POINT
11430174834,nodes,KOTO Van Mieu restaurant,105.8364294,21.0283744,POINT
11362154953,nodes,Neko Nuru Massage,105.8293971,21.019058,POINT
11286510010,nodes,Rèm Sỹ Hương,105.831329,21.0172922,POINT
11286510014,nodes,,105.8314432,21.0175222,POINT
11286510016,nodes,,105.8314934,21.0174888,POINT
5485665297,nodes,T+ Beer Club,105.8199492,21.0239192,POINT
10621408635,nodes,WinMart,105.8094935,21.0233096,POINT
11985285017,nodes,Haidilao Hot Pot,105.809305,21.0236491,POINT
11985285020,nodes,Mixue,105.8097613,21.023475,POINT
11985285021,nodes,Crocs,105.8099077,21.0236943,POINT
11985285022,nodes,Nhà sách Phương Nam,105.8095411,21.0232052,POINT
11985320507,nodes,Simisi,105.8081926,21.0231568,POINT
10621408636,nodes,H&M,105.8093004,21.023217,POINT
11420299599,nodes,VitalMart,105.7989851,21.011631,POINT
10621408640,nodes,Levi's,105.8094159,21.0232793,POINT
5486075337,nodes,Nhà Hàng Bia Lan Chín,105.8197796,21.0226243,POINT
11068139295,nodes,Savio Bar & Restaurant,105.7853853,21.292823,POINT
4205001489,nodes,Vườn sinh thái Ngọc Linh,105.8155193,21.2718578,POINT
9593662286,nodes,Trường Tiểu Học Minh Trí,105.7477398,21.267398,POINT
3885756534,nodes,Trường THCS Minh Trí,105.7498147,21.2700814,POINT
6280931985,nodes,,105.7284069,21.2754625,POINT
11662119269,nodes,Duc Chinh Watches Store,105.3981737,21.3117042,POINT
11159386675,nodes,Sửa xe Tú Tài,105.4157495,21.2075312,POINT
11159386685,nodes,SportTStime,105.4150501,21.2079972,POINT
11160267277,nodes,,105.4151804,21.2077901,POINT
9811836144,nodes,Green Mart,105.7398919,21.0047245,POINT
6919550087,nodes,WinMart+,105.7427357,21.0041054,POINT
11662128969,nodes,,105.3859326,21.3093219,POINT
5618765421,nodes,Siêu thị Đức Thành,105.75863,20.9727956,POINT
12055526805,nodes,TH True Mart,105.7540461,20.9955647,POINT
9593207328,nodes,Trường Tiểu học Trường Yên,105.6480531,20.9172394,POINT
8447602008,nodes,V35-Tiệm bánh Minh Quang,105.7793688,21.0653593,POINT
5485793602,nodes,Siêu thị Thuốc Việt,105.8174783,21.0197554,POINT
11267071108,nodes,EAP,105.8375834,21.0332168,POINT
6150801285,nodes,WinMart+,105.8709529,20.9965883,POINT
5535025323,nodes,Binh Embroidery,105.8502606,21.0313373,POINT
11675985409,nodes,,105.8467487,21.038985,POINT
5609999064,nodes,WinMart+,105.8081818,21.0482823,POINT
12073089632,nodes,,105.8442641,21.0301714,POINT
12076471646,nodes,WinMart+,105.7779685,21.0347247,POINT
12076471648,nodes,WinMart+,105.7988788,21.0646958,POINT
11510364568,nodes,She by Hoa Nguyen,105.8493794,21.0147856,POINT
11500070696,nodes,Phở bò Tam Giang,105.8505216,21.0149361,POINT
11486942491,nodes,Dencoss Luxury Health Care & Spa,105.8500226,21.0139295,POINT
11472430137,nodes,Vua Chả Cá,105.8509418,21.0132741,POINT
11463191459,nodes,Hiếu Nguyễn,105.8502742,21.0128768,POINT
11462471440,nodes,Sis Mai Linh,105.8502238,21.0119011,POINT
11350267532,nodes,Zmart,105.9438902,21.0011668,POINT
11301620133,nodes,Gomhang.vn,105.834047,21.0146988,POINT
11212195510,nodes,tingoan,105.8345009,21.0087054,POINT
4090279692,nodes,Pizza Hut,105.8683844,20.9969652,POINT
11164095933,nodes,Mango,105.8496376,21.0110014,POINT
12098955279,nodes,Circle K,105.8501706,21.0104635,POINT
11093570357,nodes,Hương Quỳnh - Trâu Ngon 36 Món,105.4038355,21.2149303,POINT
9551703841,nodes,Bánh tráng Phú Cường cơ sở 2,105.8423388,21.0195383,POINT
4327534896,nodes,Noodle & Roll,105.8492754,21.0297478,POINT
11461525804,nodes,Organica,105.857578,21.0255339,POINT
11411581954,nodes,Uniqlo,105.8518593,21.0256337,POINT
5555548922,nodes,WinMart+,105.9131742,21.032474,POINT
11211967777,nodes,Pháp phục Phật giáo Việt Nam,105.7842575,21.048584,POINT
11043816637,nodes,Gap,105.8533055,21.0244549,POINT
11043816641,nodes,Cartier,105.8532098,21.0247494,POINT
10621408638,nodes,Mango,105.809719,21.0233736,POINT
6696264985,nodes,WinMart+,105.7540947,20.9955626,POINT
8906146640,nodes,WinMart+,105.8023371,21.0684473,POINT
10701214905,nodes,WinMart+,105.7876339,21.0329954,POINT
12076471647,nodes,WinMart+,105.7763731,21.0362261,POINT
12003570503,nodes,Hai Con Chó - Haf Haf,105.7847621,21.293404,POINT
6813726385,nodes,WinMart+,105.7665948,21.0080295,POINT
12055522287,nodes,WinMart+,105.766887,21.0103063,POINT
12055549051,nodes,FPT Shop,105.7576086,20.9954218,POINT
5485766230,nodes,Nhà Hàng Bia Hơi Hải Xồm,105.811264,21.0344004,POINT
5485791896,nodes,Nhà Hàng Bếp Mường,105.8171936,21.027178,POINT
7472889610,nodes,Thẩm Mỹ Sen,105.8065326,21.0332109,POINT
12085369604,nodes,WinMart,105.8036339,21.0006808,POINT
12095546243,nodes,WinMart+,105.8012323,21.0318019,POINT
11683982769,nodes,Xuan Fashion,105.8472722,21.0394505,POINT
11683982774,nodes,Nhà hàng Thanh Thủy,105.8472545,21.0392339,POINT
11675985403,nodes,Chả cá lăng Toàn Xuân,105.8468359,21.0393909,POINT
11675985415,nodes,Bò nầm nướng Puka,105.8470389,21.0394486,POINT
11662698952,nodes,Suzi Spa,105.8529085,21.0354242,POINT
4164893394,nodes,Curry House Maiya,105.8522312,21.0371094,POINT
11633344430,nodes,Tiệm vịt tiềm A Cường,105.8688786,21.0453824,POINT
11633344446,nodes,Nem lụi Huế,105.8682281,21.0450506,POINT
11633344451,nodes,Diệu Anh Nail,105.8687748,21.0455652,POINT
11626870546,nodes,Quan Ga Coi,105.8678339,21.038145,POINT
11622421769,nodes,Take Tacos,105.8524306,21.0322969,POINT
6850836187,nodes,Chè Bốn Mùa,105.8495322,21.0350853,POINT
4728815199,nodes,HT-Mart,105.8516567,21.0348472,POINT
11578155524,nodes,Meshinoya Ninh Hiệp,105.9411959,21.084107,POINT
11672849008,nodes,Quân Ánh Minimart,105.8505625,21.0098266,POINT
11653040777,nodes,Bảo Tín Minh Châu,105.8506506,21.0166477,POINT
11652137673,nodes,Áo Dài Sài Gòn Bảo Yến,105.8507488,21.0161567,POINT
11649543060,nodes,Made in Vietnam,105.8508553,21.0153151,POINT
11500070702,nodes,Bờm Mobile,105.8506631,21.0150644,POINT
11500070704,nodes,Miến lươn Tân Tân,105.8507748,21.0150736,POINT
11491092580,nodes,Bún Bò Huế Huyền Anh 2,105.8501977,21.0150618,POINT
4353372191,nodes,Zenith Yoga Studio II & Café,105.8444379,21.0252545,POINT
8957577168,nodes,TH True Mart,105.856426,21.0247096,POINT
11459117062,nodes,Hanoi City Tour,105.8571179,21.0236908,POINT
9931504438,nodes,Hugo Boss,105.8566558,21.0248315,POINT
11449233343,nodes,Hugo Boss,105.8558906,21.024852,POINT
11043816638,nodes,Tiffany & Company,105.8532277,21.0243159,POINT
11652210369,nodes,Trường Mầm Non Lý Công Uẩn,105.959973,21.1018353,POINT
11662814900,nodes,,105.7851969,21.0349632,POINT
10248628293,nodes,Topbag.vn,105.7823859,21.0416651,POINT
10248628301,nodes,Vinamilk,105.7828653,21.0416474,POINT
10248628271,nodes,IMiss,105.7816823,21.0416934,POINT
10248628278,nodes,Nhà sách Phương Anh,105.7813734,21.0417064,POINT
10248628279,nodes,Nhà sách Quang Khải,105.7813339,21.0417081,POINT
11618650239,nodes,Nhà sách Học liệu Sư phạm,105.7842007,21.0368403,POINT
11617804910,nodes,Bánh cuốn Bà Khê,105.7843637,21.040504,POINT
11617757741,nodes,,105.7819253,21.0403903,POINT
11584471513,nodes,Nhà xe Kỳ Anh,105.7815365,21.0448521,POINT
11586915432,nodes,Kavim,105.7856236,21.0455674,POINT
11586915435,nodes,Tân Mart,105.7857365,21.0443164,POINT
11586058873,nodes,GolfCity,105.7815252,21.0436948,POINT
11584471511,nodes,Elipsport,105.7815398,21.0448948,POINT
11578133309,nodes,Trung Thực Auto,105.7818516,21.045748,POINT
11578133336,nodes,Việt Nhật Auto,105.7815978,21.045722,POINT
11571556929,nodes,Prédia,105.7851916,21.0435169,POINT
11564331891,nodes,Tiệm tóc Tâm Anh,105.7850872,21.0447648,POINT
12022259634,nodes,Đồng hồ hiệu,105.7802367,21.0084719,POINT
6685630043,nodes,Đồng hồ Rolex nam,105.7639767,21.0357219,POINT
11618566526,nodes,Cơm Nam Đen,105.7818791,21.0381044,POINT
11584471206,nodes,,105.7815069,21.0444948,POINT
11584471508,nodes,Gara Ô tô Thế hệ Mới,105.7815456,21.0449699,POINT
11578133335,nodes,Xe điện Kim Ngân,105.7816288,21.0457312,POINT
10982036637,nodes,,105.784651,21.0451909,POINT
10248628289,nodes,Phân phối văn phòng phẩm Như Hoa,105.7825777,21.0416577,POINT
11617804906,nodes,Siêu thị bình dân Nam Phong,105.7841914,21.0409515,POINT
11617757739,nodes,,105.7821963,21.0406426,POINT
11617757743,nodes,Quán cơm Đại Long,105.7822154,21.0403849,POINT
11613119449,nodes,Kính mắt Việt Nam,105.7856129,21.0368066,POINT
11590640344,nodes,Bếp+,105.7842088,21.0453737,POINT
11590640353,nodes,,105.7842291,21.0454975,POINT
11573225478,nodes,,105.7882271,21.0435647,POINT
11573225484,nodes,,105.7886147,21.0435615,POINT
11573195853,nodes,Đình Thương Motorbikes,105.7894944,21.0433548,POINT
11573195867,nodes,,105.7875767,21.0433538,POINT
11573225487,nodes,Ô tô Đức Thịnh,105.7888151,21.0435592,POINT
11572185322,nodes,Thành Đạt Photocopy,105.7901106,21.0436478,POINT
11571556934,nodes,Trang sức đá quý Tín Nghĩa,105.7855006,21.0432764,POINT
11568902929,nodes,Thành Phát Mobile,105.7861212,21.0432454,POINT
11564435578,nodes,Thank Decor,105.7854206,21.0450608,POINT
11548995326,nodes,Five Star Laundry,105.7857997,21.0441689,POINT
11564316609,nodes,Rừng Gió Decor,105.7853032,21.0445078,POINT
11563520041,nodes,Thuỷ tinh Hà Nội,105.785835,21.0451931,POINT
11563520043,nodes,Spa Quỳnh Hương,105.7861238,21.0451431,POINT
11563431179,nodes,Tóc King,105.7861282,21.0453332,POINT
11563394780,nodes,,105.7862374,21.0456136,POINT
11559364174,nodes,,105.7896702,21.0437379,POINT
11558797419,nodes,,105.787851,21.0444531,POINT
5003340025,nodes,,105.8206375,21.0352176,POINT
11521920510,nodes,Street Sushi,105.8095517,21.0376712,POINT
4857749522,nodes,,105.8519644,21.0367098,POINT
5639988477,nodes,Tops Market,105.7854355,20.9789425,POINT
11362154951,nodes,Xuka VIP Massage,105.7910617,21.0095735,POINT
11205745790,nodes,Phố đi bộ Carnaby 214,105.8021672,20.9845435,POINT
9841384117,nodes,Twinsneaker.vn,105.7753954,21.0229477,POINT
11225281240,nodes,Kärcher,105.7829664,21.0464749,POINT
11219294697,nodes,,105.7818364,21.0492235,POINT
11058019888,nodes,Chợ Bến,105.6692165,20.6858256,POINT
11649175869,nodes,Máy tính Hoàng Hà,105.8200754,20.9985659,POINT
12069445484,nodes,Trường Trung cấp Cầu đường và Dạy nghề - Binh đoàn 12,105.7285857,20.9236804,POINT
12072961920,nodes,WinMart+,105.8209368,20.9833169,POINT
12085322102,nodes,WinMart+,105.8183597,20.9841648,POINT
5526778624,nodes,WinMart,105.8225074,20.9641395,POINT
6714083188,nodes,WinMart+,105.7901937,20.9899945,POINT
12085369605,nodes,WinMart+,105.7770062,20.9852229,POINT
12090162463,nodes,Chợ quê Nghiêm Xá,105.8533554,20.8080169,POINT
5616868222,nodes,WinMart,105.7892184,20.9746026,POINT
5521966864,nodes,WinMart+,105.8586452,20.9874802,POINT
8982736848,nodes,Tmart,105.8132939,20.9913639,POINT
12085505829,nodes,WinMart+,105.84122,21.0513415,POINT
5384763225,nodes,Cửa Hàng Mỹ Phẩm Body And Soul,105.8238098,21.0606916,POINT
12078106238,nodes,,105.844963,21.0317445,POINT
12078122272,nodes,Maori Tattoo,105.8448827,21.0313902,POINT
12078122287,nodes,Hanoi Train Street Travel,105.8445447,21.0306904,POINT
12089194926,nodes,,105.8403472,21.0301427,POINT
12091424990,nodes,WinMart+,105.8650657,20.9889287,POINT
11683982781,nodes,8mobile,105.8477945,21.0397025,POINT
11671752241,nodes,Moc,105.8487436,21.0360838,POINT
11652506577,nodes,Nha Thuoc Phi,105.8509644,21.0372325,POINT
4355761091,nodes,Paolo & Chi Pizzeria Old Quarter,105.8521843,21.0360908,POINT
6499559587,nodes,Kodak Express,105.8333773,21.0344846,POINT
1000087296,nodes,,105.8374034,21.0305309,POINT
12097613261,nodes,Pizza Lovers,105.8468926,21.0338421,POINT
4375604995,nodes,Nhà Hàng Luna D' Autunno,105.842688,21.0264034,POINT
6684447087,nodes,WinMart+,105.7580895,20.9951438,POINT
2399194698,nodes,Izakaya Yancha,105.8090898,21.0294166,POINT
5485795813,nodes,Nhà Hàng Hàng Bánh Poeme,105.8170605,21.0198815,POINT
12095546240,nodes,WinMart+,105.7914866,21.032155,POINT
12095546242,nodes,WinMart+,105.8126308,21.0204383,POINT
11765598470,nodes,,105.8499669,21.0318336,POINT
11682819069,nodes,,105.8580649,21.0098244,POINT
11672849011,nodes,Lam Phi Quynh Store,105.850593,21.0100111,POINT
11671848849,nodes,Com Nien Viet,105.849273,21.0353303,POINT
11656083679,nodes,Jacket Shop,105.8526157,21.0366783,POINT
11652724264,nodes,Ramkrishna,105.8521393,21.0360566,POINT
11644919775,nodes,Chợ Vĩnh Tuy,105.8716876,21.0017434,POINT
11609617209,nodes,The Hanoi Cafe,105.8480563,21.0321366,POINT
11601645093,nodes,Amore Nail Art,105.8497461,21.016639,POINT
11601353629,nodes,S.Pearl,105.8494594,21.0165829,POINT
11601353635,nodes,Shop Tuấn Hằng,105.8493715,21.0168619,POINT
11591740415,nodes,Oceania Spa & Clinic,105.8495224,21.0153512,POINT
7005699529,nodes,Style,105.8484238,21.0372822,POINT
11510364565,nodes,,105.8493038,21.0150206,POINT
11510383975,nodes,,105.8498133,21.0150385,POINT
11491405060,nodes,Chả Cá Thăng Long,105.8459895,21.033293,POINT
9651875417,nodes,,105.8492453,21.0354524,POINT
11491305592,nodes,Mint Cosmetic,105.8503232,21.0138284,POINT
11491092585,nodes,Tiệm Ăn Ken,105.8502835,21.0149553,POINT
11490090670,nodes,Don Duck,105.8516861,21.0366008,POINT
11482387884,nodes,Kat,105.8492941,21.0128909,POINT
11478463721,nodes,Anh Thỏ Lú Hair Shop,105.8497555,21.0124578,POINT
11470110664,nodes,Phương Anh Beauty & Spa,105.8509006,21.0129394,POINT
11470121169,nodes,The MOC Beauty Lab,105.8505567,21.0127533,POINT
11462471438,nodes,Halei,105.8500426,21.0119939,POINT
8957577169,nodes,Pandora,105.8566891,21.024755,POINT
7140198385,nodes,Nhà Hàng Luk Lak,105.8575276,21.0225054,POINT
11653040772,nodes,Lan - Sửa chữa quần áo,105.8507782,21.0164982,POINT
11653040775,nodes,Vàng Khánh Linh,105.850712,21.0167017,POINT
11653040781,nodes,Vàng Bạc Đá Quý Thịnh Mãi,105.8505347,21.0166227,POINT
11649693310,nodes,Brides by Olivia,105.8505707,21.0158947,POINT
11649543058,nodes,Sue Ann Bridal,105.8506971,21.0153599,POINT
11649543059,nodes,Miến lươn Tân Tân,105.8508477,21.0152615,POINT
11649543061,nodes,Phở Sướng Cô Mười,105.8508537,21.0153899,POINT
4968899728,nodes,Vietnam Airlines,105.8477591,21.0184513,POINT
11625397930,nodes,Alvi Store,105.8497977,21.0143507,POINT
11625397943,nodes,Mr. Big Beef - Bò Nướng Tảng,105.8500087,21.0145105,POINT
11615961387,nodes,Hồ Lô Quán,105.8502118,21.0162389,POINT
11615961403,nodes,Naquyt,105.8499994,21.0160952,POINT
11615961409,nodes,Phúc Sport Boutique,105.849954,21.015701,POINT
11613547707,nodes,Hibi's Cake,105.8499939,21.0153523,POINT
11613547719,nodes,Jenny K Tran,105.8502141,21.0157061,POINT
11601353630,nodes,MaiiMer,105.8494482,21.0166295,POINT
11598930305,nodes,Real Clothes,105.8493809,21.015822,POINT
11598930311,nodes,Pin Berry Korea,105.8493874,21.0160161,POINT
11591740424,nodes,Wormy Piercing,105.8493135,21.0153271,POINT
11553643134,nodes,Scent Stories,105.8318261,21.0142102,POINT
11534643039,nodes,BB Beauté,105.8493368,21.0135826,POINT
11510383976,nodes,Emma Lab,105.84982,21.0149747,POINT
11505968811,nodes,Vang Online by Buy2sell,105.8505374,21.0137424,POINT
11505669842,nodes,An Biên Eatery,105.8506004,21.0141696,POINT
11505669843,nodes,Sumibozu - Gà Nướng Than,105.8505752,21.0140916,POINT
11463192510,nodes,Hoàng Hair Salon,105.8499765,21.0130626,POINT
11462471448,nodes,Flannels,105.8502298,21.0124585,POINT
7162751067,nodes,Circle K,105.8580026,21.0277902,POINT
11452175821,nodes,VietjetAir,105.8581489,21.0275487,POINT
11449233347,nodes,Dior,105.8554316,21.0251628,POINT
11449233348,nodes,Louis Vuitton,105.8553919,21.0250159,POINT
11420617130,nodes,Nhà sách Minh Anh,105.8336658,21.0089678,POINT
11662118469,nodes,,105.8842698,21.0492923,POINT
11633344450,nodes,Hair Salon Tiến Phạm,105.8687019,21.0455738,POINT
8906132456,nodes,Nhà Hàng Fabrik,105.8378849,21.0438777,POINT
11697674112,nodes,Rubies,105.8510325,21.0104166,POINT
11697674116,nodes,Anh Phát Made in Vietnam,105.8509323,21.0102303,POINT
11680976229,nodes,Tra My Beauty & Spa,105.8507911,21.0094381,POINT
11672848996,nodes,Fashion Hồng Thắng,105.8503891,21.0095445,POINT
11652527569,nodes,BANH Mi NHE,105.856488,21.0303627,POINT
11649543056,nodes,Giặt Khô - Là Hơi,105.8506251,21.0152747,POINT
11625397934,nodes,Trâu Ngon Quán,105.850019,21.0136368,POINT
11615961402,nodes,Wine Time,105.8499924,21.0161291,POINT
11615961404,nodes,Quán cơm Minh Hiền,105.8499661,21.0160697,POINT
11601645100,nodes,Bún Ốc Cổ Hà Nội,105.8497633,21.0167569,POINT
11598930309,nodes,Mono Talk,105.8493861,21.0159369,POINT
11514136139,nodes,Lucas,105.8497824,21.0145785,POINT
11491290548,nodes,Đại Đức,105.8501742,21.0143651,POINT
11491290567,nodes,Metis,105.8503087,21.0140398,POINT
11491092584,nodes,Nhà mốt Đức Hạnh,105.8502688,21.0149906,POINT
11482387940,nodes,Wefood,105.8497161,21.0125813,POINT
11482388013,nodes,Sunlux,105.8497827,21.013164,POINT
11472888175,nodes,,105.8363726,21.0280898,POINT
11468718379,nodes,Roxie,105.8506308,21.0123557,POINT
5579625721,nodes,Siêu Thị Hapro,105.8937923,21.0647882,POINT
11287172768,nodes,vinmart,105.8484678,21.0294929,POINT
11107781280,nodes,,105.8433861,21.0052143,POINT
12098955406,nodes,Le Shop,105.8512567,21.0156629,POINT
11168751430,nodes,Ngan chặt Gia Huy,105.8035235,21.0459733,POINT
11168751435,nodes,Nội thất Song Lê,105.8033303,21.0459513,POINT
4090297904,nodes,Pizza Hut,105.8492805,21.011391,POINT
11164095940,nodes,Samsonite,105.8492696,21.0110764,POINT
11164095942,nodes,Thai Express,105.849603,21.0109435,POINT
9961849555,nodes,Nike,105.8501917,21.0115925,POINT
11478449866,nodes,Fahasa,105.8500563,21.0114604,POINT
6688119237,nodes,,105.805443,21.0077019,POINT
11586961130,nodes,Dr. Thanh Trang,105.7865654,21.0422905,POINT
11556689534,nodes,Amita Academy,105.7863195,21.0424215,POINT
11572113157,nodes,Sách Quang Minh,105.7867026,21.0419774,POINT
11572142338,nodes,Samcheop Topokki,105.7869133,21.041801,POINT
11568902926,nodes,Cháo lòng Hợp Lý 4,105.7861262,21.0433502,POINT
11568902930,nodes,Quán Cừu Vui Vẻ,105.7861186,21.0432146,POINT
11568902931,nodes,Hair Salon Giang Oanh,105.7861186,21.0431755,POINT
5628078922,nodes,Cà Phê Hương Mai,105.8483955,21.0318405,POINT
6637255485,nodes,,105.8525983,21.0329923,POINT
11878372469,nodes,Green Inn,105.847612,21.0324629,POINT
11843064774,nodes,Manh Cuong,105.8481806,21.0321747,POINT
11772847469,nodes,Nón sơn,105.8465424,21.0299216,POINT
11675163969,nodes,Xôi Tiến,105.848015,21.0292381,POINT
11652045469,nodes,,105.8489375,21.0296969,POINT
724829580,nodes,Circle K,105.8525735,21.0319823,POINT
7133135768,nodes,Circle K,105.852571,21.0321513,POINT
5367178321,nodes,Circle K,105.8508423,21.0323894,POINT
11411581950,nodes,Didongviet.vn,105.8512405,21.0321166,POINT
11371361970,nodes,Bánh mì chay Vegan,105.8497103,21.0303507,POINT
10120064773,nodes,Yu Tang,105.8507802,21.0311318,POINT
5526708021,nodes,Phở Thìn Bờ Hồ,105.8540297,21.0303491,POINT
10298555575,nodes,Phở bưng Hàng Trống,105.8493056,21.0313423,POINT
4383208489,nodes,Barber Shop Nam,105.8496826,21.0265809,POINT
12067360424,nodes,Mien with eel,105.853029,21.0200886,POINT
993037743,nodes,Photocopy A4-A0,105.8535856,21.0225905,POINT
11832258569,nodes,,105.8465455,21.0252399,POINT
9945276817,nodes,Ưu Đàm Chay,105.84814,21.0187719,POINT
11575869869,nodes,,105.8478445,21.019251,POINT
6924855571,nodes,Nhà Hàng Buffet Sen,105.8566919,21.0246832,POINT
11449677586,nodes,Lý Club,105.8571125,21.0261699,POINT
6611773893,nodes,Trung tâm Sách và Văn hóa phẩm Tràng Tiền,105.8545804,21.0251983,POINT
11419728540,nodes,Siêu thị 108,105.8606304,21.0177298,POINT
4272727197,nodes,Cửa Hàng Bún Chả Hương Liên,105.8538843,21.0180504,POINT
5334178022,nodes,Quán Phở Thìn,105.8553,21.0181784,POINT
721906714,nodes,Sushi Hokkaido Sachi,105.8543053,21.0202197,POINT
11152625106,nodes,Tomibun,105.8548727,21.0213583,POINT
6850919385,nodes,Ô mai Hồng Lam Phố Huế,105.8520018,21.0197436,POINT
4383436892,nodes,El Gaucho,105.8563607,21.0244842,POINT
10217688610,nodes,,105.8476414,21.0245471,POINT
4785798523,nodes,Siêu Thị Hapro,105.8583853,21.0189202,POINT
7085620457,nodes,,105.8338268,21.0357162,POINT
7176887373,nodes,,105.833791,21.0355426,POINT
12086846810,nodes,Vua Dép Lốp,105.831653,21.0364863,POINT
12093635211,nodes,,105.8329243,21.0355093,POINT
4749008115,nodes,Hoàng thành Thăng Long,105.83953,21.0334391,POINT
11302498662,nodes,,105.8307903,21.0160608,POINT
11302498663,nodes,H-Mart,105.8307629,21.0161018,POINT
11301620078,nodes,May Wedding,105.8335647,21.0152122,POINT
11301620145,nodes,Bếp Đức Thành,105.8342321,21.0146333,POINT
11299136753,nodes,Wetrip.vn,105.8330964,21.0157102,POINT
11299136761,nodes,Max One Store,105.8331485,21.0156348,POINT
11299159069,nodes,Giấc mơ sữa Việt,105.8331985,21.015607,POINT
11290667666,nodes,Kaylin Clothing,105.8320814,21.0156643,POINT
11286510013,nodes,Đèn Thắng Dư,105.8313479,21.0172405,POINT
11281683521,nodes,Nguyễn Sơn Bakery,105.8316387,21.0163375,POINT
11281683528,nodes,iStorevn,105.8315608,21.0163998,POINT
11263842276,nodes,Bếp NK,105.8328222,21.0152582,POINT
11263842284,nodes,KT Atlantic,105.8330427,21.015013,POINT
11190957358,nodes,Quan Com,105.7845874,21.0563747,POINT
11168751416,nodes,Cửa hàng Hoà Khánh,105.8040832,21.0459734,POINT
11070385169,nodes,,105.783221,21.0583265,POINT
11169410924,nodes,,105.7840013,21.0573868,POINT
11167471087,nodes,Hà Đăng Mart,105.793548,21.028823,POINT
11159386702,nodes,Đại lý Minh Quân,105.4139671,21.2091704,POINT
11159386673,nodes,Hanvico,105.4158492,21.2072759,POINT
11159386679,nodes,Nệm Kim Cương,105.4152397,21.2077361,POINT
11159386681,nodes,,105.4151023,21.2078633,POINT
11159386687,nodes,Ngọc Lốp,105.4149808,21.2081373,POINT
11159140825,nodes,Shop T & M,105.4131506,21.2106125,POINT
11159140854,nodes,Hoàng Phương Mobile,105.4130275,21.2110512,POINT
11159140855,nodes,Hằng Đoàn Bontique,105.4130098,21.2110866,POINT
11159140880,nodes,Salon Ô tô,105.4128947,21.2112598,POINT
11093672118,nodes,Thiên Vương Quán nhậu,105.3576235,21.2324195,POINT
11093721475,nodes,Hồng Mến Quán,105.3556836,21.2331321,POINT
11346186768,nodes,iMeatu Korean BBQ,105.8502974,21.0173967,POINT
11301609135,nodes,Đô Đô Petshop,105.8333175,21.0155104,POINT
11301620098,nodes,SmallApple,105.8338413,21.0149529,POINT
11301620134,nodes,Tech 88 Apple-Store,105.8340484,21.0147377,POINT
11299136737,nodes,Bike 2 School,105.8329418,21.0158244,POINT
11295820777,nodes,Yến Sào Nha Trang,105.832019,21.016661,POINT
11274659368,nodes,Shop 2Anh,105.8311303,21.0155855,POINT
11281683531,nodes,Tuấn Vinh,105.8314618,21.0164851,POINT
11263842270,nodes,ADJ,105.8326335,21.0154377,POINT
11212195518,nodes,Hàng tiêu dùng - nhập khẩu Lào - Thái Lan,105.8342684,21.0084201,POINT
11212195531,nodes,Bánh tráng Bé My,105.8358316,21.0101638,POINT
11212149485,nodes,Bami Sami,105.8363638,21.0101878,POINT
11212149492,nodes,MIAH Bigsize,105.8360821,21.0099682,POINT
11212149499,nodes,TokyoLife,105.835832,21.0098168,POINT
11212149500,nodes,Curnon Watch,105.8357962,21.009781,POINT
11212149502,nodes,Key,105.8357355,21.0097279,POINT
11212149506,nodes,Bác Tôm,105.8355423,21.0095702,POINT
11212149520,nodes,Biliev,105.8350443,21.0091758,POINT
11211915134,nodes,Green Spa,105.8321093,21.0129643,POINT
6684446690,nodes,WinMart+,105.7815312,21.0161053,POINT
11207463925,nodes,VinFast,105.7514049,20.9525789,POINT
11164095938,nodes,Gap,105.8493957,21.0108885,POINT
12098955278,nodes,The Ramen Mafia,105.8506388,21.0101045,POINT
12098955280,nodes,Pizza 4P's,105.8507164,21.0114032,POINT
12098955282,nodes,Dookki,105.8493825,21.0112282,POINT
12098955285,nodes,Miniso,105.8502267,21.0112616,POINT
7238237318,nodes,Cửa Hàng Thời Trang CREW,105.7046173,20.9239832,POINT
8175904585,nodes,Cửa Hàng Chăn Ga Đệm Elan Tuấn Linh,105.7894528,20.9624311,POINT
963611886,nodes,Thai Village,105.8512129,21.0320076,POINT
11215223977,nodes,,105.7843197,21.0475219,POINT
11168751403,nodes,Vật liệu xây dựng Tiến Thịnh,105.8044961,21.045974,POINT
11168751422,nodes,Showroom gạch Maika,105.8038444,21.0459734,POINT
6036359888,nodes,Ẩm Thực Chay Tịnh Nghiệp,105.8301652,21.0343921,POINT
12086810589,nodes,,105.8318003,21.0351231,POINT
11676661169,nodes,Quán Bánh Cuốn Nóng Gia Truyền,105.8301501,21.034455,POINT
8656346641,nodes,WinMart+,105.7968882,21.0477645,POINT
5609999044,nodes,WinMart+,105.795593,21.0476098,POINT
6795015291,nodes,Siêu Thị Tiện Lợi KT Mart,105.7920778,21.0476134,POINT
5140729377,nodes,Thế Hưng Motor,105.7814111,21.061882,POINT
5490298321,nodes,Cửa Hàng Bia Hơi Duy Thái,105.7838507,21.0610851,POINT
7813034098,nodes,,105.7813122,21.0612196,POINT
7813034097,nodes,,105.7813228,21.0612043,POINT
3373090580,nodes,Kính Mắt Xuân Thuỷ,105.7813363,21.0611837,POINT
7813034096,nodes,,105.7813119,21.0611611,POINT
3422559391,nodes,In Ấn Mạnh Lương,105.7818103,21.0606109,POINT
3377820306,nodes,Thế Giới Di Động,105.7827577,21.0587443,POINT
11070385167,nodes,,105.7832809,21.0584102,POINT
11169410919,nodes,,105.7835342,21.0576576,POINT
11169410922,nodes,,105.7838574,21.0575343,POINT
11169410928,nodes,,105.7839054,21.0569388,POINT
11190954519,nodes,Nam Cham Store,105.7853853,21.0570092,POINT
11190954518,nodes,Gao Duy Anh,105.7855223,21.0572032,POINT
11190954520,nodes,Tiem Sua Xe,105.7843521,21.0565886,POINT
11190957357,nodes,Anh Sam,105.7845828,21.0561948,POINT
11190957376,nodes,Quan Banh Mi,105.7846813,21.0561201,POINT
11215223976,nodes,Minh Anh Bia - Bún chả,105.7842225,21.0475194,POINT
11215223971,nodes,Bún cá Việt Nam,105.7842896,21.0472369,POINT
11215223963,nodes,Hạnh Thuận kim khí,105.7842891,21.0471316,POINT
11215223961,nodes,,105.7843152,21.04694,POINT
11215223970,nodes,Phở,105.7842885,21.0470096,POINT
11215223962,nodes,Bún cá hạnh phúc,105.7842888,21.0470658,POINT
5235896721,nodes,Cửa Hàng Xe Đạp AE shop,105.8331049,21.0426652,POINT
6363596370,nodes,Nhà Hàng Fish,105.8329754,21.0426556,POINT
6572623546,nodes,Trung Tâm Thiết Kế Hafele,105.8252136,21.0423741,POINT
6422973404,nodes,Nhà Hàng Java Sea Food,105.8339462,21.0534439,POINT
5918039687,nodes,Siêu Thị Hàng Đức,105.834472,21.0528046,POINT
4164895891,nodes,Nhà Hàng The Moose & Roo Pub & Grill,105.8317362,21.0613457,POINT
10889558181,nodes,Hey Pelo,105.8317925,21.0612865,POINT
6342224785,nodes,,105.8325093,21.0610253,POINT
2136325301,nodes,Saint Honore,105.8322037,21.0610589,POINT
4561625962,nodes,Yakushi,105.8320327,21.0615205,POINT
9931528181,nodes,,105.8336527,21.0596852,POINT
5321972321,nodes,Nhà Hàng Gòn - Bites & Veggies,105.8300842,21.0597181,POINT
8083779134,nodes,Nhà Hàng Hanoi Taco Bar,105.8304805,21.0600412,POINT
9931530713,nodes,,105.8687756,21.0407422,POINT
4706056292,nodes,Thái tuyết,105.8745949,21.0410235,POINT
9931531020,nodes,Vit34,105.8733119,21.0421527,POINT
9667846383,nodes,Circle K,105.8714907,21.0428338,POINT
5302018622,nodes,WinMart,105.8700266,21.0420279,POINT
7178805955,nodes,Cửa Hàng Thời Trang M2,105.8715684,21.0434913,POINT
6850919485,nodes,Ô mai Hồng Lam Nguyễn Văn Cừ,105.8730851,21.044223,POINT
6643857576,nodes,Vans,105.8734303,21.0447053,POINT
6290724786,nodes,,105.8674785,21.0448345,POINT
5491050400,nodes,Mỳ Vịt Tiềm A Cường,105.8689215,21.0451806,POINT
5491060637,nodes,Nhà Hàng Mì Vịt Tiềm A Cường,105.8688982,21.0452136,POINT
6836686863,nodes,,105.87069,21.045626,POINT
6458302485,nodes,,105.8709807,21.0453827,POINT
5609999964,nodes,WinMart+,105.8741281,21.0449663,POINT
5608881060,nodes,PNJ,105.871845,21.046865,POINT
8204154517,nodes,Siêu Thị Hapro,105.870501,21.0459882,POINT
7231903687,nodes,Quinza - 15A Ngoc Thuy,105.8649889,21.0463222,POINT
5003334222,nodes,Co-op Mart,105.8663369,21.0452716,POINT
5436612021,nodes,Strassenmarkt,105.8510354,21.0387182,POINT
7023770386,nodes,Bánh Xèo Bizon - Chợ Đêm Đồng Xuân,105.8493293,21.0386492,POINT
5254163722,nodes,,105.8512143,21.0392662,POINT
5253678122,nodes,,105.8509788,21.0395385,POINT
7176651348,nodes,,105.8501882,21.0398363,POINT
4769029330,nodes,,105.849583,21.0404718,POINT
5378024622,nodes,Siêu Thị Long Biên,105.8509208,21.0410353,POINT
5749800822,nodes,,105.852423,21.0410509,POINT
10765202471,nodes,Tiệm Nước Trần Thị Hoa,105.857926,21.0433448,POINT
11350267531,nodes,Circle K,105.9432461,21.0014664,POINT
11347894280,nodes,HC,105.8203227,21.0087369,POINT
11372720515,nodes,Thẩm mỹ Hoàng Tuấn,105.9459204,20.9915555,POINT
11372720516,nodes,Vựa Hải Sản Gió Biển,105.9461001,20.9914455,POINT
11372720517,nodes,Chao Quán,105.9462847,20.9913416,POINT
6437591786,nodes,Decathlon,105.8162139,21.0031873,POINT
12085369611,nodes,WinMart+,105.8069535,21.012756,POINT
5610000271,nodes,WinMart+,105.8023265,20.9978058,POINT
12091397043,nodes,WinMart+,105.8033791,20.9971366,POINT
11199002137,nodes,WinMart+,105.8148679,20.994132,POINT
8984048765,nodes,Tmart,105.8140295,20.9865313,POINT
11865682871,nodes,Uniqlo,105.8159533,21.0023177,POINT
5609999115,nodes,WinMart+,105.8025447,21.0107843,POINT
4392924147,nodes,Honda,105.8077915,20.994343,POINT
7055920276,nodes,Thế Giới Di Động,105.8063115,20.9940357,POINT
6551006685,nodes,Nhà Hàng Nabesu,105.8045696,21.0048395,POINT
9555611949,nodes,Pharmacity,105.7979595,20.992803,POINT
10199082700,nodes,Thế Giới Di Động,105.77063,20.9825703,POINT
12068431563,nodes,WinMart+,105.7873018,20.9845322,POINT
5609998358,nodes,WinMart+,105.7878349,20.9904944,POINT
6684446694,nodes,WinMart+,105.7838643,20.9901964,POINT
11204042137,nodes,WinMart+,105.785193,20.9697438,POINT
8506661320,nodes,Helios Auto Detailing,105.7801703,20.9836509,POINT
11287879899,nodes,WinMart+,105.7842679,20.9964902,POINT
6373396052,nodes,Cutepets - Siêu Thị Chó Mèo,105.7800263,20.9791873,POINT
12538794306,nodes,Vietnam Cafe Bakery,105.7893424,21.2192866,POINT
12538794307,nodes,Sky Souvenir Shop,105.7891226,21.2193558,POINT
12538794402,nodes,Lucky Souvenir Shop,105.7898709,21.2191366,POINT
12538794404,nodes,amazing Viet Nam,105.7889945,21.2193954,POINT
12540668403,nodes,Bow Coffee & Fine Food,105.7884211,21.2195478,POINT
12540668405,nodes,Souvenir Shop,105.7935486,21.2182885,POINT
12540668504,nodes,LOTTE Duty Free,105.7921742,21.2186821,POINT
12540668511,nodes,Nasco Duty Free TDN,105.795433,21.2175737,POINT
12540668706,nodes,Viet Nam’s Delights,105.791917,21.2188033,POINT
12540668711,nodes,Fresh Garden,105.7940673,21.2179646,POINT
12540668715,nodes,Sweet Gift,105.7953727,21.2175874,POINT
5694009529,nodes,WinMart+,105.8357193,21.0064003,POINT
7612528482,nodes,Nhà hàng San Hô Đỏ,105.8350604,21.0062988,POINT
5474800534,nodes,Bánh Đúc Nóng - Trung Tự,105.833775,21.0088422,POINT
5609999087,nodes,WinMart+,105.8362768,21.0036261,POINT
12228968664,nodes,Siêu thị B11 Kim Liên,105.83513,21.0075497,POINT
6661014058,nodes,WinMart+,105.8388667,20.9847441,POINT
12473015246,nodes,WinMart+,105.8383133,20.9726381,POINT
12496055430,nodes,WinMart+,105.8324792,20.9890394,POINT
11195150737,nodes,WinMart+,105.8365312,20.9931445,POINT
11212500531,nodes,Mialala,105.8342363,21.0088816,POINT
11212500532,nodes,LEP',105.8341831,21.0088361,POINT
11212500534,nodes,Phụ kiện Hà Xinh,105.8341173,21.0087787,POINT
11212544440,nodes,blink,105.8338394,21.0085543,POINT
11212544441,nodes,Cosmo Design,105.8337919,21.0085147,POINT
11212544442,nodes,Fresh Garden,105.8337179,21.0084537,POINT
11212544443,nodes,Dũng Phương,105.8336695,21.0084188,POINT
11212544444,nodes,Origato,105.8336306,21.0083878,POINT
11212544446,nodes,Hapas,105.8335523,21.0083254,POINT
11212544450,nodes,Onetone,105.8334096,21.008211,POINT
11212544452,nodes,Mymy Shoes,105.833349,21.0081637,POINT
11212544456,nodes,Linstore,105.833193,21.0080114,POINT
11212544457,nodes,Venus Charm,105.8331623,21.0079844,POINT
11212544459,nodes,Bee Shoes,105.8330666,21.0079125,POINT
11212544461,nodes,Potato Fashion,105.8329746,21.0078463,POINT
11212544462,nodes,Germe,105.8329375,21.0078164,POINT
11212544463,nodes,Glam Accessories,105.8327863,21.0076951,POINT
11212544464,nodes,Triumph,105.8328254,21.0077198,POINT
11212544465,nodes,Thai Trinh,105.8328667,21.0077474,POINT
11212544467,nodes,DZ Collections,105.8327579,21.0077254,POINT
12701567721,nodes,WinMart+,105.8390652,20.9729754,POINT
12459025801,nodes,WinMart+,105.8632082,20.9950474,POINT
5609999099,nodes,WinMart+,105.8877878,20.9940076,POINT
12473015240,nodes,WinMart+,105.8545024,20.9966562,POINT
12525718496,nodes,WinMart+,105.9816802,20.9831751,POINT
12582315256,nodes,WinMart+,105.8728365,20.9905037,POINT
12694230827,nodes,WinMart+,105.8877896,20.9845078,POINT
12525718495,nodes,WinMart+,105.9766281,20.9818345,POINT
5694054122,nodes,Vin +19 T22 Đ.Anh,105.8568805,21.1696205,POINT
12364680467,nodes,Huong Lan Cafe,105.7812949,21.2149963,POINT
12364730577,nodes,Hai Nga,105.7814937,21.2142706,POINT
12369553667,nodes,Honda,105.8508034,21.2621072,POINT
12538794403,nodes,Ngoc Bao Linh Souvenir Shop,105.7896905,21.2191817,POINT
12538794801,nodes,Top Souvenir,105.7895824,21.2192159,POINT
12538794901,nodes,Handmade Souvenir,105.7895258,21.2192381,POINT
12538794903,nodes,Song Viet Store,105.7890355,21.2193709,POINT
12538795001,nodes,The Book and Gift Shop,105.7894823,21.2192459,POINT
12540668507,nodes,Star Cafe,105.7939751,21.2180011,POINT
12540668509,nodes,Made In Viet Nam,105.7949396,21.2177081,POINT
12540668602,nodes,Deli Mart,105.7882137,21.2196171,POINT
12540668702,nodes,Viet Souvenir Shop,105.7881368,21.2196368,POINT
12540668707,nodes,LOTTE Duty Free,105.7926742,21.2185481,POINT
12540668716,nodes,LOTTE Dury Free,105.7954768,21.2177724,POINT
12553297662,nodes,WinMart+,105.9119472,21.1365565,POINT
12553297664,nodes,WinMart+,105.8650608,21.1028654,POINT
3684940919,nodes,Xưởng tranh kính nghệ thuật,105.4856939,21.1108861,POINT
12142320550,nodes,WinMart+,105.8292805,21.0113053,POINT
9805222055,nodes,Bụi store,105.8334478,21.0111718,POINT
6715369161,nodes,Circle K,105.8326173,21.0126738,POINT
10648115262,nodes,ShopDunk Care,105.8339731,21.0139659,POINT
11212195526,nodes,mint Cosmetics,105.836028,21.010349,POINT
11212195528,nodes,Her Studios,105.8359649,21.0102953,POINT
11212195532,nodes,Đầm bầu Mom Baby,105.8357849,21.0101284,POINT
11212216789,nodes,New Day,105.8350713,21.0095676,POINT
11212216790,nodes,Calie,105.8350267,21.0095279,POINT
11212216795,nodes,Everon,105.8348458,21.009385,POINT
11212216796,nodes,Kichi-Kichi,105.8348078,21.0093544,POINT
11212242437,nodes,SMG,105.8356532,21.0100218,POINT
11212242438,nodes,JM Dress Design,105.8356155,21.0099926,POINT
11212242439,nodes,Bestmum Materinity,105.8355687,21.0099538,POINT
11212242440,nodes,Tiin,105.835538,21.0099314,POINT
11212242441,nodes,Charme,105.8355036,21.0099044,POINT
11212242442,nodes,ilaby Kids,105.8354452,21.0098591,POINT
11212500519,nodes,SammiShop,105.8346435,21.0092128,POINT
11212500520,nodes,Shop Phan Ngân,105.8346188,21.0091918,POINT
11212500522,nodes,Leika,105.834559,21.0091459,POINT
11212500525,nodes,Klever Fruit,105.8344307,21.0090385,POINT
11212500528,nodes,May Boutique,105.8343286,21.0089568,POINT
5530044723,nodes,WinMart+,105.8348616,21.0141362,POINT
11295778638,nodes,Lyly Đặng,105.8318938,21.017034,POINT
11295778639,nodes,Hair Salon 1993,105.8319349,21.0170246,POINT
11295778640,nodes,Ngọc Hà,105.8319523,21.0169808,POINT
11295778665,nodes,Đồ Si Kiện Tuyển,105.8320832,21.0168931,POINT
11295820790,nodes,Spa Mỹ Á Beauty & Clinic,105.8322029,21.0167398,POINT
11301609163,nodes,Hair Salon Anh Tuấn,105.8335582,21.0153534,POINT
11301620110,nodes,Hair Salon Bảo Ngọc,105.8340164,21.0148892,POINT
11301620122,nodes,Hải sản Quảng Ninh,105.8340887,21.0148309,POINT
11301620136,nodes,,105.8341314,21.0147994,POINT
12597038201,nodes,Giặt sấy Koi Wash 24/7,105.8469972,21.0361423,POINT
12597043501,nodes,Giặt Sấy Koi Wash 24/7,105.8470442,21.0361259,POINT
5544481325,nodes,WinMart+,105.8430817,21.0459691,POINT
11416873270,nodes,WinMart+,105.8393586,21.0187082,POINT
12606257716,nodes,WinMart+,105.8375258,21.0207111,POINT
4710377590,nodes,Namaste Hanoi,105.845192,21.0261035,POINT
12627900447,nodes,WinMart+,105.8478529,21.0349146,POINT
12629848756,nodes,WinMart+,105.8335859,20.990378,POINT
12644660556,nodes,Bún riêu Cô Hoàn,105.8478115,21.0377733,POINT
12644690081,nodes,Chè Nhà Suvy,105.8485082,21.021273,POINT
12652598278,nodes,WinMart+,105.8326207,21.0215558,POINT
12651094220,nodes,Bún chả 29,105.8391105,21.0511586,POINT
12654299492,nodes,Bánh cuốn Hồ Tây,105.8387514,21.05134,POINT
12655188403,nodes,Circle K,105.8324811,21.0609519,POINT
12657776443,nodes,Bún chả que tre,105.8458763,21.0437437,POINT
12659337379,nodes,Hương bánh xèo,105.8364016,21.0541021,POINT
5634358121,nodes,Thanh Hương ( Lê Thị Mai Hương ),105.578304,20.8823411,POINT
12705123537,nodes,Seoul Boss,105.5782231,20.9058646,POINT
6520653290,nodes,Lốp ô tô Thái Phương,105.8953311,21.0506204,POINT
10002371863,nodes,Điện Máy Xanh,105.893592,21.0511687,POINT
11960886745,nodes,Bún bò Huế O Lộc,105.7831492,20.9641714,POINT
11243880807,nodes,WinMart,105.7916407,20.9635026,POINT
12091397055,nodes,WinMart+,105.7936138,20.962459,POINT
12091397056,nodes,WinMart+,105.8083025,20.9498596,POINT
12017316256,nodes,Siêu thị bánh tráng TANA (cơ sở Lê Lai - Hà Đông,105.7795511,20.9666457,POINT
11927269258,nodes,Trường Tiểu học & THCS Hà Nội - Thăng Long,105.7898178,20.9614938,POINT
11927399098,nodes,Trường THPT Xa La,105.789599,20.9609462,POINT
11917401143,nodes,Điện máy xanh,105.7643078,20.9623801,POINT
11207463927,nodes,Mazda,105.7517266,20.9528342,POINT
6897424553,nodes,Cửa Hàng Làm Tóc Lee,105.826455,20.96419,POINT
6129825385,nodes,Cửa Hàng Tiện Lợi BV Mart,105.7960698,20.9790881,POINT
11573195856,nodes,Công nghệ Auto,105.7886252,21.0433501,POINT
11644509069,nodes,Phương Nguyên Quán,105.7930668,21.042005,POINT
11573225475,nodes,Gara Ôtô Đức Thắng 79,105.7880606,21.0435661,POINT
11573225479,nodes,,105.7883309,21.0435639,POINT
11573225481,nodes,Hương Thảo Fashion,105.7884504,21.0435629,POINT
11573225485,nodes,Gara Ô tô Thanh Loan,105.7886667,21.0435611,POINT
11573225486,nodes,Nội thất Ô tô Minh Ngọc,105.7887379,21.0435605,POINT
11573195852,nodes,Điều hoà Tuấn Nghĩa,105.78941,21.0433538,POINT
11573195861,nodes,Đức Thịnh 79,105.7889731,21.0433536,POINT
11573195862,nodes,Tuấn Loan Auto Thăng Long,105.789097,21.0433508,POINT
11573225470,nodes,Xe máy Công Bằng,105.7879045,21.0433563,POINT
11572185323,nodes,Đại lý phụ tùng Tâm An,105.7898967,21.0436499,POINT
11558797422,nodes,,105.7881889,21.044299,POINT
7917702789,nodes,In Tem Mã Vạch An Thành,105.7936346,20.9632675,POINT
9181828827,nodes,WA GRILL - THỊT NƯỚNG MANG VỀ KÈM BẾP 24H,105.792954,21.0200535,POINT
11586911189,nodes,Vườn Bonsai Hoàng Nghĩa,105.7850606,21.0430352,POINT
11573225473,nodes,Gara Ôtô Phú Quang,105.7872205,21.0433522,POINT
11573034201,nodes,G46,105.7863373,21.0418895,POINT
11556689532,nodes,Vua tóc giả,105.786316,21.042172,POINT
11556689533,nodes,WinMart+,105.7863191,21.0423756,POINT
11556689535,nodes,Hải sản Trung Dũng,105.7863199,21.0424748,POINT
11572171970,nodes,HB,105.7863161,21.0422394,POINT
11572171971,nodes,Xe Đạp 88,105.7863174,21.0422952,POINT
11572171974,nodes,VTG,105.7863163,21.042085,POINT
11572113156,nodes,,105.7869211,21.0419786,POINT
11572113158,nodes,Điện lạnh Cao Thiên,105.7865802,21.0419839,POINT
11572113159,nodes,Dr. Lacir,105.7865995,21.0420755,POINT
11572142332,nodes,Mạnh Dũng Smart Tech Group,105.7866183,21.0418015,POINT
11572142333,nodes,Lilicake,105.7866627,21.0418018,POINT
11572142336,nodes,,105.7868051,21.0418026,POINT
11572142339,nodes,Sinh Anh Hair,105.7869442,21.0418,POINT
11572142341,nodes,Nội thất ôtô Trường Phát,105.7870297,21.0418244,POINT
11572079077,nodes,Viet Rivertow,105.7844817,21.0432985,POINT
11571705771,nodes,Mộc Tấm Spa,105.7859301,21.0428583,POINT
11571556925,nodes,Trung tâm Nam Hải,105.7847831,21.0438273,POINT
11569635170,nodes,Cá Voi Yugioh,105.784687,21.0427398,POINT
11569635173,nodes,,105.7842442,21.0431993,POINT
11568902927,nodes,Cơm Ngon Quán,105.7861234,21.0433095,POINT
11568902932,nodes,Minh Sushi,105.7861171,21.0431353,POINT
11568902935,nodes,Lòng Ngon Quán,105.7859577,21.0431357,POINT
10248628307,nodes,Nhà hàng Cơm Phố,105.7851977,21.044259,POINT
11568907803,nodes,Dr. Zo Spa & Clinic,105.7857489,21.0438221,POINT
11568928304,nodes,Sửa chữa Hưng Thịnh,105.7859939,21.0436264,POINT
11568539974,nodes,Nhà hàng Phúc Lâm,105.784162,21.0442928,POINT
11563562489,nodes,Sollee Guitar Store,105.7862661,21.043881,POINT
11564316605,nodes,Battrang.info,105.7860914,21.043902,POINT
11564316607,nodes,Thời trang tóc Bích Thuỷ,105.7859209,21.0440284,POINT
11846710069,nodes,Tiệm sửa xe,105.7879369,21.0329468,POINT
5608881105,nodes,PNJ,105.7929013,21.0355601,POINT
5485791887,nodes,FPT shop,105.7901582,21.0365124,POINT
7055990037,nodes,Nhà hàng Habit BBQ,105.7879368,21.0331281,POINT
11662355203,nodes,WinMart+,105.7866112,21.0358155,POINT
7055985628,nodes,Ba Ba Sơn Đông,105.7888949,21.0346219,POINT
7056022256,nodes,Cá Thùy Linh,105.7888821,21.0345704,POINT
7056027929,nodes,Bún Chả Sinh Từ,105.7889104,21.0346716,POINT
7055997855,nodes,Fresh Garden,105.7890704,21.0352629,POINT
11618650237,nodes,For Fun Studio,105.7838685,21.036846,POINT
11618650238,nodes,Hoa tươi Mai Thắng,105.7840069,21.0368432,POINT
11613119450,nodes,Cocolux,105.7857319,21.0368026,POINT
11397904123,nodes,tiệm trà,105.7936471,21.0321145,POINT
11240624141,nodes,bami king,105.7897879,21.0367957,POINT
12015164552,nodes,Trường Trung cấp Thủ đô,105.762243,21.0314507,POINT
5686499421,nodes,WinMart+,105.7594346,21.036702,POINT
5686732824,nodes,WinMart+,105.7526052,21.0320474,POINT
6684445985,nodes,WinMart+,105.7607818,21.0350695,POINT
6776200385,nodes,WinMart+,105.7450975,21.0343065,POINT
6791833885,nodes,WinMart+,105.7639468,21.0372425,POINT
11399584554,nodes,,105.7628853,21.0212199,POINT
11389436633,nodes,Seven Mart,105.7399788,21.0046513,POINT
11389436635,nodes,WinMart+,105.737985,21.0062137,POINT
11389436638,nodes,Vital Mart,105.7402779,21.0045345,POINT
11208353290,nodes,VinFast,105.7409573,21.0403255,POINT
12037079816,nodes,Lan Coffee,105.7945721,21.0181037,POINT
5609999089,nodes,WinMart+,105.7943861,21.0234013,POINT
12072961918,nodes,WinMart,105.7858607,21.0272402,POINT
11158192627,nodes,Jamun Coffee & Bakery,105.7877033,21.0198052,POINT
11490090669,nodes,Nhẩt Ming,105.8731904,21.3700503,POINT
6488009486,nodes,Nhà Hàng CIAO,105.8276931,21.0297106,POINT
446043000,nodes,Trà Xuân Tửu,105.8277638,21.0297549,POINT
6477305289,nodes,Cửa Hàng Camera Canon Service,105.8269781,21.0295275,POINT
9912980443,nodes,Chops,105.82688,21.0294427,POINT
4969921722,nodes,,105.827782,21.0290394,POINT
5485861753,nodes,Cửa Hàng Bánh Mì Bami King,105.8280594,21.0271738,POINT
5485803769,nodes,Nhà hàng Kim Long,105.8214833,21.0274431,POINT
5908014488,nodes,,105.8238362,21.0286444,POINT
5753700123,nodes,Nhà Hàng Hot Rock,105.824279,21.0275728,POINT
4542431590,nodes,,105.824279,21.0271177,POINT
5384986721,nodes,Cửa Hàng Chả Cá Anh Vũ,105.8242231,21.0270241,POINT
5603879232,nodes,Unimart Giảng Võ,105.8226439,21.0260451,POINT
5485810349,nodes,Nhà Hàng Lemon House,105.8220995,21.0257766,POINT
5485810350,nodes,Nhà Hàng Lẩu Hơi Cosmos,105.8220479,21.0257391,POINT
5485733755,nodes,Saint Honore,105.8222527,21.025897,POINT
5485805609,nodes,Bách Hoá An Huy,105.8215812,21.026375,POINT
5485657752,nodes,Wrap and Roll,105.8227238,21.0264009,POINT
6146962285,nodes,Paris Gâteaux,105.8236693,21.0269376,POINT
5485663514,nodes,Nhà Hàng Cơm Niêu Kombo,105.8209471,21.0242775,POINT
7051100386,nodes,,105.8539787,21.0301066,POINT
4735624525,nodes,quán góc hà nội,105.8536866,21.0307904,POINT
7178933284,nodes,,105.8534815,21.0312381,POINT
7051100785,nodes,,105.8539709,21.0299887,POINT
9593533123,nodes,Trường THCS ĐạI Thắng,105.8824468,20.7814135,POINT
9593919784,nodes,Trường THCS Văn Tự,105.8896448,20.7878245,POINT
9593503728,nodes,Trường THCS Vạn Điểm,105.9087846,20.7770024,POINT
9593503722,nodes,Trường THCS Minh Cường,105.9033509,20.7676486,POINT
9593474590,nodes,Trường THCS Quang Trung - Phú Xuyên,105.8837029,20.7606705,POINT
9593334637,nodes,Trường THCS Hồng Thái,105.9554049,20.7619366,POINT
9593503718,nodes,Trường THCS Sơn Hà,105.8893817,20.7410367,POINT
9593285967,nodes,Trường THCS Thị Trấn Phú Xuyên,105.9090185,20.7440581,POINT
9593285968,nodes,Trường THCS Trần Phú - Phú Xuyên,105.9111869,20.7447054,POINT
9593285977,nodes,Trường THCS Nam Triều,105.9316443,20.7484015,POINT
9593285978,nodes,Trường Tiểu Học Nam Triều,105.9323095,20.7481226,POINT
9593662287,nodes,Trường THCS Hoàng Long,105.8315263,20.7590961,POINT
9593381063,nodes,Trường Tiểu Học Văn Hoàng,105.8500953,20.7737131,POINT
9593381062,nodes,Trường THCS Văn Hoàng,105.8499794,20.7738575,POINT
10817737098,nodes,Trường Mầm non Xã Tri Trung,105.8306731,20.7784646,POINT
10817737099,nodes,Trường Tiểu học Tri Trung,105.8313195,20.7778978,POINT
9593248614,nodes,Trường THCS Tri Trung,105.8289754,20.7777434,POINT
9593285980,nodes,Trường THCS Nghiêm Xuyên,105.8562015,20.8111691,POINT
10845878391,nodes,Trường Mầm non Trung tâm Xã Nghiêm Xuyên,105.8581771,20.8039104,POINT
9593919775,nodes,Trường THCS Phượng Dực,105.8453197,20.7944843,POINT
9593862346,nodes,Trường THCS Hồng Minh,105.8300161,20.7922074,POINT
10811135952,nodes,Chợ thôn Tri Chỉ,105.8292155,20.7841007,POINT
5485779587,nodes,Soya Garden,105.819756,21.0308649,POINT
5485807457,nodes,Nhà hàng Mẹt Đồng Quê,105.8198351,21.0304779,POINT
5485796749,nodes,Nhà hàng 123 Kim Mã,105.8166595,21.0303637,POINT
6813546227,nodes,Cửa Hàng Thời Trang An Phước,105.8163163,21.0303308,POINT
5608881112,nodes,PNJ,105.8162474,21.0303238,POINT
5908014487,nodes,,105.8137295,21.029763,POINT
9587000794,nodes,Siêu thị Điện máy Nguyễn Kim - Ba Đình,105.8130616,21.0294612,POINT
5603809224,nodes,Siêu Thị Intimex,105.8177924,21.0293755,POINT
5485795886,nodes,Nhà hàng Ngọc Thúy,105.8172329,21.0301162,POINT
5485779171,nodes,Bánh Mỳ Cô Long,105.8128162,21.0287861,POINT
5485779798,nodes,Nhà hàng Như Quỳnh,105.8127303,21.0284656,POINT
5485779646,nodes,Nhà Hàng Han Kook Kwan,105.8127598,21.0284982,POINT
4565362493,nodes,Học Viện Hành Chính Quốc Gia,105.8154076,21.0287613,POINT
5485772100,nodes,Nhà hàng Cơm niêu Thúy Nga,105.8125587,21.0280475,POINT
5485768199,nodes,Nhà hàng Nét Huế,105.8125211,21.0278572,POINT
6621989886,nodes,,105.8180999,21.02593,POINT
5485670670,nodes,Nhà Hàng Bít Tết Ngon,105.8206671,21.0239911,POINT
6330002285,nodes,,105.8506769,21.02906,POINT
10839011533,nodes,,105.8506288,21.028926,POINT
6437524885,nodes,,105.8505197,21.028295,POINT
4570230497,nodes,,105.8505424,21.030813,POINT
10302091009,nodes,,105.849708,21.0309157,POINT
6099909886,nodes,,105.8501315,21.0312099,POINT
10266548610,nodes,urban oasis spa,105.8500507,21.0311902,POINT
4759037451,nodes,Nhà Hàng Jalus Vegan,105.8495042,21.0306344,POINT
8843584081,nodes,Tuấn Việt,105.8505276,21.0305161,POINT
4485140198,nodes,Cửa Hàng Hanoi Biking Travel,105.8506196,21.0305496,POINT
5645868623,nodes,Phó Mâu Restaurant,105.8507105,21.0303616,POINT
5273086824,nodes,,105.8506192,21.0302359,POINT
4944084523,nodes,Tuên an,105.8505637,21.0302017,POINT
4868910830,nodes,,105.8505011,21.030163,POINT
4423192489,nodes,,105.8501184,21.0301114,POINT
7112582086,nodes,,105.8505769,21.0295333,POINT
5342137922,nodes,,105.8503601,21.0295166,POINT
6240672585,nodes,,105.8502857,21.0296818,POINT
4800135721,nodes,,105.850243,21.029749,POINT
7205103886,nodes,,105.8493646,21.0294309,POINT
11063758705,nodes,,105.8581485,21.0277958,POINT
721906718,nodes,Nhà Hàng Khazaana Indian,105.857296,21.0286735,POINT
3150526966,nodes,WinMart,105.8553923,21.029586,POINT
4759093221,nodes,thêm triển,105.857588,21.0300881,POINT
4759093222,nodes,Cửa Hàng Tự Chọn BGA Mart,105.8575294,21.0301994,POINT
11063721305,nodes,,105.857439,21.0302456,POINT
4385152989,nodes,,105.856572,21.0299505,POINT
4768903648,nodes,Cửa Hàng Tiện Lợi Green,105.8560336,21.0309714,POINT
7162759375,nodes,Thuan Beauty Salon,105.8559287,21.0310169,POINT
5389834822,nodes,,105.8545903,21.0312362,POINT
6235610085,nodes,,105.8547051,21.0309561,POINT
9593268464,nodes,Trường THCS Hồng Quang,105.7984588,20.6232216,POINT
9593264120,nodes,Trường THCS Hương Sơn,105.7885173,20.6125262,POINT
5103151024,nodes,Quán dung,105.7664103,20.7603792,POINT
9593975504,nodes,Trường THCS Trường Thịnh,105.7670327,20.766751,POINT
5745157621,nodes,,105.7530903,20.7660675,POINT
9593623738,nodes,Trường THCS Hồng Dương,105.7837649,20.7959441,POINT
9593887404,nodes,Trường THCS Cao Dương,105.7615899,20.8116832,POINT
5736138024,nodes,Chè Phố Cổ,105.7684394,20.7355015,POINT
5103167922,nodes,Quốc Anh,105.7703356,20.733166,POINT
5710063921,nodes,Thịnh Lam,105.7562386,20.7296637,POINT
9593862342,nodes,Trường THPT Nguyễn Thượng Hiền,105.7695489,20.7282242,POINT
5103167423,nodes,Vịnh tuân,105.765983,20.7085654,POINT
9593503729,nodes,Trường THCS Vạn Thái,105.7661888,20.7060288,POINT
9593958094,nodes,Trường THCS Hòa Xá,105.7562532,20.6946909,POINT
9593862348,nodes,Trường THCS Đốc Tín,105.7786677,20.629107,POINT
9593560394,nodes,Trường THCS Lưu Hoàng,105.8046617,20.6482088,POINT
9593264125,nodes,Trường THCS Hoà Lâm,105.810973,20.685289,POINT
9593887411,nodes,Trường THCS Hòa Phú,105.7797599,20.6729455,POINT
9593623741,nodes,Trường THCS ĐạI Hưng,105.7637165,20.6721191,POINT
6520653709,nodes,Xuân Huấn,105.7372024,20.6857731,POINT
5104713922,nodes,Túy nhiên,105.7408725,20.685894,POINT
9593334623,nodes,Trường THCS Bột Xuyên,105.7160778,20.782748,POINT
9593862349,nodes,Trường THCS Viên Nội,105.7152179,20.7922734,POINT
9593862350,nodes,Trường Tiểu Học Viên Nội,105.7150278,20.7927299,POINT
5101080625,nodes,Thiện chiến,105.6714447,20.7958938,POINT
5101080628,nodes,Sang hà,105.6724396,20.7994977,POINT
5103114229,nodes,Siêu thị dũng bình,105.6985779,20.7601501,POINT
9593285979,nodes,Trường THCS Hợp Tiến,105.6990683,20.686848,POINT
6276021389,nodes,,105.6657394,20.684626,POINT
9593623735,nodes,Trường THCS Hợp Thanh,105.7046601,20.6694247,POINT
5415671021,nodes,Du Lịch Indochina,105.8481848,21.0282731,POINT
6424998588,nodes,,105.8478811,21.0280205,POINT
3565070814,nodes,,105.8478482,21.0275185,POINT
4791093921,nodes,Siêu Thị Mini Best Mart,105.8486064,21.0309796,POINT
7049419985,nodes,The Body Shop,105.8482046,21.0307798,POINT
6094494886,nodes,Hạnh Riêu Cua Ốc,105.8488719,21.0307763,POINT
7176894742,nodes,,105.8487894,21.0309616,POINT
7176876337,nodes,Chung Gallery,105.8489136,21.030608,POINT
4193558991,nodes,Nhà Hàng Lotus Blanc,105.8487452,21.0306071,POINT
4176320992,nodes,Rue Lamblot,105.8487741,21.0306212,POINT
977668079,nodes,Siêu Thị Hapro,105.8482851,21.0307067,POINT
6372109387,nodes,Крокс,105.8479798,21.0307321,POINT
6939023303,nodes,Gốm Sứ Hiên Vân,105.8486114,21.0305373,POINT
4127549394,nodes,Nhà Hàng Little Vietnam,105.8489208,21.0302779,POINT
4791072527,nodes,Thanh hà,105.8489541,21.0296949,POINT
5614486423,nodes,Phùng Motorbike,105.8488304,21.0295697,POINT
5610000264,nodes,WinMart+,105.8487652,21.029425,POINT
6652530094,nodes,,105.8487709,21.0295031,POINT
7673780895,nodes,Nhà Hàng Gia Đình Âu Lạc,105.8486283,21.0294867,POINT
10871038317,nodes,Omamori spa,105.8483488,21.0295185,POINT
4791019823,nodes,,105.8478841,21.0295384,POINT
6939042599,nodes,Circle K,105.8491746,21.0299577,POINT
6014427285,nodes,Siêu Thị Hapro,105.8473135,21.0302694,POINT
4791002622,nodes,Chợ Sạch,105.8474866,21.0301765,POINT
7052260185,nodes,Circle K,105.8467011,21.0302322,POINT
5360654921,nodes,Mắt Kính Thanh Lịch,105.8465185,21.029849,POINT
10264303109,nodes,,105.8464797,21.0293084,POINT
9931534175,nodes,Yves Rocher,105.8458767,21.0294973,POINT
4744680222,nodes,Skechers,105.8457245,21.0295468,POINT
4705336592,nodes,Cửa Hàng Giày Dép Mangii,105.845799,21.0296517,POINT
4746280723,nodes,,105.8459786,21.029749,POINT
9931538549,nodes,Jenny,105.8456329,21.0293831,POINT
5566655321,nodes,,105.8474227,21.0302816,POINT
5920353327,nodes,Pho Ga Nguyet,105.8476483,21.0302913,POINT
6696113990,nodes,The Sinh Tourist,105.8473588,21.0304834,POINT
5277149621,nodes,Nhà Hàng Mỹ Phồ,105.8474703,21.0305967,POINT
993037744,nodes,Phong Lan,105.8474583,21.0307123,POINT
5003329726,nodes,,105.8463548,21.0305592,POINT
5299562823,nodes,,105.8457769,21.0307596,POINT
6466346985,nodes,,105.8458102,21.0308435,POINT
5003340024,nodes,,105.846383,21.0309514,POINT
6451712889,nodes,,105.8465291,21.0309929,POINT
4949185323,nodes,ô mai vạn lợi,105.8466714,21.030945,POINT
6155720189,nodes,Nhà Hàng Trung Tâm Rooftop Bar,105.846607,21.0308303,POINT
6466347085,nodes,,105.8462015,21.0308363,POINT
977668089,nodes,Son Thanh,105.8472039,21.0307814,POINT
4711760491,nodes,,105.8471607,21.0308724,POINT
5999457186,nodes,Triêù patisserie,105.847071,21.0311013,POINT
6012884346,nodes,Nhà Hàng G-Grab,105.8471966,21.0312161,POINT
977668091,nodes,,105.8468517,21.0311777,POINT
4743002624,nodes,số 1 ngõ trạm,105.8461285,21.0311698,POINT
5213420122,nodes,Mạnh Lốp,105.8449527,20.9564157,POINT
5438056221,nodes,Toyota Pháp Vân,105.845361,20.9661892,POINT
4432075689,nodes,,105.8617425,20.9442272,POINT
6894795685,nodes,,105.8640474,20.9606738,POINT
6679994487,nodes,,105.8684594,20.9673538,POINT
5106560321,nodes,Phan,105.8432742,20.9428687,POINT
9593334633,nodes,Trường THCS Khai Thái,105.9583953,20.7231669,POINT
9593862338,nodes,Trường THCS Phúc Tiến,105.9235482,20.7240584,POINT
9593515314,nodes,Trường Trung Học Cơ Sở Phú Yên,105.8984543,20.6946744,POINT
9593248613,nodes,Trường THCS Châu Can,105.8971981,20.6884518,POINT
9593503721,nodes,Trường THCS Vân Từ,105.896063,20.7159808,POINT
9593887402,nodes,Trường THCS Tri Thủy,105.955216,20.7003503,POINT
6370028285,nodes,,105.9117285,20.6828352,POINT
9593264127,nodes,Trường THCS Thư Phú,105.906146,20.8604602,POINT
9593503727,nodes,Trường THCS Tự Nhiên,105.916156,20.8594302,POINT
9593386644,nodes,Trường THCS Chương Dương Thường Tín,105.9097375,20.8462609,POINT
6520665189,nodes,Xuân Trường,105.8796549,20.827584,POINT
9593258922,nodes,Trường THCS Quất Động,105.8741909,20.8428767,POINT
10694726603,nodes,Nga Hang Vinh Coi,105.8696593,20.871935,POINT
10694763006,nodes,Nha Hang Loi Hai Duong,105.8696779,20.8719278,POINT
9593515309,nodes,THCS Đồng Tân,105.8360582,20.7123322,POINT
9593926218,nodes,Trường THCS Đông Lỗ,105.8808937,20.6496959,POINT
9593919772,nodes,Trường THCS Đội Bình,105.8178124,20.6485724,POINT
9593268462,nodes,Trường THCS Kim Đường,105.8662097,20.6697248,POINT
4740929423,nodes,Bún Chả TA,105.8546895,21.0346796,POINT
4662691589,nodes,Bún Chả TA,105.8544931,21.0343571,POINT
4582360689,nodes,,105.8557908,21.0338796,POINT
5670961069,nodes,,105.8576602,21.0327441,POINT
5670961068,nodes,,105.8589269,21.0324887,POINT
5405834521,nodes,Du Lịch Full Moon,105.8559887,21.032418,POINT
5927891796,nodes,Gara Flamingo Travel,105.8563723,21.032549,POINT
10669431406,nodes,Chayfood,105.8543947,21.033073,POINT
4735494225,nodes,phương anh,105.8543325,21.0331387,POINT
4800023939,nodes,Nhà Hàng Nét Huế,105.8543843,21.0327066,POINT
9931514402,nodes,The Flower Shop,105.8545741,21.0325446,POINT
7160697330,nodes,K-Mart,105.8554545,21.0324437,POINT
6533893985,nodes,Nhac cafe,105.855273,21.0324152,POINT
7213217985,nodes,Du Lịch Daiichi,105.8544765,21.0320359,POINT
5640067721,nodes,Nhà Hàng MNA,105.8546029,21.0314654,POINT
4735505922,nodes,Bách Hoá Chú Cường,105.8545617,21.0314544,POINT
10222614647,nodes,Colette,105.8555929,21.031367,POINT
6445185486,nodes,,105.8555396,21.0314112,POINT
5149561322,nodes,,105.85555,21.0321214,POINT
4703081289,nodes,Đại Lý Dũng Liên,105.8707718,21.0369331,POINT
6703665514,nodes,Công Ty TNHH TM & DL Amasia Việt Nam,105.8680192,21.0376274,POINT
4703119790,nodes,Đại Lý Liên,105.8684803,21.0380277,POINT
6703691385,nodes,Du Lịch Explorers Indochina,105.8686074,21.0378229,POINT
4703119789,nodes,Đại Lý Phú Hiền,105.868331,21.0381126,POINT
4486425789,nodes,,105.8542075,21.0376415,POINT
4782370023,nodes,smart kid,105.8556804,21.0351589,POINT
6467213309,nodes,rienttravel,105.854174,21.0354393,POINT
2256217990,nodes,Nhà Hàng Blue Butterfly,105.8535038,21.0347487,POINT
3304244852,nodes,NP Green,105.8538788,21.0348897,POINT
4634652489,nodes,Cửa Hàng Go Motorcycle,105.8536914,21.0348921,POINT
6477774987,nodes,NYC Pizza,105.8535259,21.0349168,POINT
5482016521,nodes,,105.8539031,21.0330233,POINT
6388936775,nodes,Cửa Hàng Nghệ Thuật Huy Hùng,105.8537633,21.0329885,POINT
5491288621,nodes,Nhà Hàng Garden House,105.8539228,21.0331966,POINT
4171014889,nodes,OH,105.8536242,21.033094,POINT
4424707089,nodes,Circle K,105.8539001,21.0325813,POINT
9931536196,nodes,,105.8538475,21.0317949,POINT
9931507056,nodes,Design & Couture,105.8539726,21.0318651,POINT
6904546314,nodes,Cửa Hàng Giày Hưng Thi,105.853991,21.0319645,POINT
10244441809,nodes,,105.8539638,21.0313382,POINT
9931516011,nodes,Made in Viet Nam,105.8538988,21.0315753,POINT
9931521208,nodes,,105.8538729,21.0316937,POINT
9931536920,nodes,,105.8540266,21.0316592,POINT
9931536197,nodes,,105.8540335,21.0315237,POINT
4486255597,nodes,Hoa Tươi Như Nguyệt,105.8536541,21.0387113,POINT
4790979121,nodes,Tạp phẩm 39 mã mây,105.8536015,21.035485,POINT
5179500224,nodes,,105.8535617,21.0355924,POINT
5297895223,nodes,,105.8506635,21.0369392,POINT
7178804175,nodes,,105.8507183,21.0366956,POINT
6435152186,nodes,,105.847967,21.0367909,POINT
7961106585,nodes,Phở Gánh,105.8495033,21.0368584,POINT
4589086092,nodes,Nhà Hàng Bang Mi,105.8485904,21.0363677,POINT
6151656987,nodes,Zinnfiguren,105.8478576,21.0363323,POINT
4580702592,nodes,Nhà Hàng Don Duck,105.850906,21.0364309,POINT
7178803968,nodes,,105.8507473,21.0365437,POINT
7178812670,nodes,,105.850851,21.0365128,POINT
7178796703,nodes,,105.8507661,21.0361546,POINT
7178802377,nodes,,105.8508245,21.0359807,POINT
4279240691,nodes,Cửa Hàng Bít Tết Hai Tý,105.8508651,21.0356505,POINT
7177118185,nodes,Nhà Hàng Nam Bít Tết,105.8509018,21.0357579,POINT
7176850935,nodes,,105.8508606,21.0355334,POINT
7176889674,nodes,Cửa Hàng Giày Dép My Kitty,105.8509583,21.0355191,POINT
4773733664,nodes,Cà Phê Kim Lài,105.8506882,21.0354761,POINT
7176854615,nodes,,105.8509846,21.0354558,POINT
4780694021,nodes,,105.8499224,21.0352297,POINT
4700551365,nodes,Quán Rượu Likka Stow,105.8503362,21.0354898,POINT
6911093085,nodes,,105.8498192,21.0356201,POINT
4917013024,nodes,Thời Trang Thành Đạt,105.8493224,21.0352551,POINT
6123357786,nodes,,105.8484257,21.0352972,POINT
4917007825,nodes,,105.8477989,21.0354005,POINT
2259067316,nodes,,105.8492596,21.0356727,POINT
7205103885,nodes,,105.8483227,21.0359638,POINT
5367602921,nodes,,105.8461664,21.0357452,POINT
10296348609,nodes,Pho Chuyen Bo,105.8459984,21.0357453,POINT
10298693329,nodes,Phở Lâm,105.846433,21.0356438,POINT
4739178629,nodes,sakura,105.8469539,21.0358622,POINT
5674684322,nodes,Điếu Cày Nghĩa Dũng,105.8474917,21.0355529,POINT
7018735686,nodes,,105.8467598,21.0356262,POINT
5221674824,nodes,Toiletries shop,105.8472844,21.0354673,POINT
4917004728,nodes,,105.8476374,21.0354091,POINT
4830320522,nodes,Tung Lee,105.84753,21.035309,POINT
4557010331,nodes,ODC travel,105.8454798,21.0352461,POINT
4170969790,nodes,OH,105.8452359,21.0361837,POINT
5842314385,nodes,Quán Miên - Bánh Da Cua Ly Quõc Su,105.8462299,21.0367469,POINT
6836340685,nodes,,105.846316,21.036713,POINT
4739172721,nodes,thai an,105.8472299,21.0366634,POINT
5342660823,nodes,Bánh Cuốn Hàng Cót,105.8471872,21.036722,POINT
4728789099,nodes,Kun's Mart,105.8470348,21.036962,POINT
4728822693,nodes,Cửa Hàng Ben,105.8470351,21.0368912,POINT
5877127886,nodes,,105.8467046,21.0380741,POINT
4586351390,nodes,Lẩu Dê Nhất Ly,105.8472101,21.0376339,POINT
6579800166,nodes,Vân,105.8492623,21.0375182,POINT
6815241485,nodes,Circle K,105.849202,21.0372921,POINT
5517035923,nodes,,105.849914,21.0373274,POINT
5138049422,nodes,Cửa Hàng Bánh Mì Gia Thanh,105.8506333,21.037447,POINT
6124577685,nodes,,105.8498118,21.0375831,POINT
7178802082,nodes,Tinh,105.8506172,21.0376388,POINT
4572907890,nodes,,105.8507086,21.0377037,POINT
7070872186,nodes,,105.8480342,21.0376034,POINT
6335523385,nodes,Nhà Hàng Eel Soup,105.8479414,21.0378757,POINT
5244176621,nodes,Hair Salon Lan Phương,105.8482345,21.0378895,POINT
4486811094,nodes,night market food stands,105.8487834,21.0382682,POINT
6560975385,nodes,,105.8519956,21.0332814,POINT
6437916085,nodes,,105.8519996,21.0333652,POINT
4481034394,nodes,Bun Ca sam Cay Si,105.8526709,21.0333829,POINT
10298693325,nodes,Miến trộn mực,105.852783,21.0333264,POINT
4761909244,nodes,,105.8539143,21.0333039,POINT
4755943818,nodes,,105.8553045,21.0336787,POINT
993037617,nodes,Nhà Hàng Yakiniku Shiki,105.8548258,21.0336059,POINT
3565070806,nodes,Toread,105.8543152,21.0335796,POINT
721906721,nodes,Tandoor Indian Cuisine,105.8537345,21.0335791,POINT
4355692621,nodes,Nhà Hàng Mum's,105.8539504,21.0338377,POINT
5010584324,nodes,,105.853998,21.0338345,POINT
10734202162,nodes,O Bun Cha,105.8543042,21.0339076,POINT
4210706604,nodes,Xoi Yen,105.8545363,21.0337675,POINT
6361078788,nodes,Nhà Hàng Mắm,105.8547277,21.0337603,POINT
9671606212,nodes,Quang Duy,105.8551962,21.0338419,POINT
9671606211,nodes,Bun Mien Ngan,105.8551788,21.0338396,POINT
9671622119,nodes,Hong Anh,105.8551321,21.0338365,POINT
9671622120,nodes,Phuong Min,105.8551076,21.0338355,POINT
9931516696,nodes,,105.8545303,21.0339691,POINT
2587491495,nodes,Phở Cường,105.8548223,21.0339341,POINT
4750263322,nodes,Halo Mart,105.8545911,21.0340699,POINT
5877127987,nodes,,105.8539119,21.0340554,POINT
5324912922,nodes,Nhà Hàng Hanoi Food Culture,105.853663,21.0340799,POINT
723642373,nodes,Tamarind Cafe,105.8533099,21.0341589,POINT
4971661023,nodes,,105.8534653,21.0341339,POINT
6846697886,nodes,,105.8527803,21.0339924,POINT
6873081196,nodes,,105.8534592,21.0340268,POINT
6602127504,nodes,Du Lịch Mr Linh's Adventures,105.8534882,21.0339221,POINT
6301487785,nodes,,105.8534837,21.0338552,POINT
7621655185,nodes,Chè Hương Hải,105.8534387,21.0337454,POINT
4973295321,nodes,orchid,105.8531624,21.0337987,POINT
4697048190,nodes,Du Lịch Hanoi Street Food Tour,105.8521332,21.0339986,POINT
5633972321,nodes,Nhà Sách Artbook,105.8520031,21.0340573,POINT
5693010522,nodes,Cho Thuê Xe Máy Văn Chính,105.8522062,21.0344022,POINT
6824611385,nodes,,105.8531437,21.0341784,POINT
997997620,nodes,Red bean,105.8533178,21.0342414,POINT
4632309491,nodes,,105.8534791,21.0343767,POINT
6696115885,nodes,Nhà Hàng Lanterne,105.8534813,21.034417,POINT
6035459485,nodes,,105.8533419,21.0344919,POINT
4486842492,nodes,,105.8522323,21.0345928,POINT
10728843553,nodes,The Gourmet Corner,105.8521072,21.0345577,POINT
4499886390,nodes,,105.8522204,21.0344791,POINT
2256217991,nodes,Nhà Hàng Essence,105.852037,21.0345271,POINT
4346678690,nodes,Sieu Thi Qua Vat,105.8520281,21.0351244,POINT
723795403,nodes,Nhà Hàng Half Man Half Noodle,105.8530045,21.0350466,POINT
4341891090,nodes,Nhà Hàng Banana Tree,105.8531396,21.035056,POINT
5537970227,nodes,Old Quarter travel,105.8533566,21.0350739,POINT
5415671023,nodes,Quán Spa Marguerite,105.853404,21.0348193,POINT
6344401585,nodes,So good,105.8529514,21.0348623,POINT
723642244,nodes,Nhà Hàng Gecko,105.8525664,21.0348198,POINT
4485128193,nodes,Spa & Massage Huong Sen,105.8529743,21.0347941,POINT
9593975503,nodes,Trường THCS Văn Bình,105.8637646,20.8802931,POINT
5735358322,nodes,,105.862796,20.8760343,POINT
9008780595,nodes,Nha Leo Phuong 01,105.8490803,20.8669751,POINT
11049261520,nodes,,105.8668611,20.8717589,POINT
11049261519,nodes,,105.8644887,20.8719944,POINT
8308047818,nodes,chợ hoa Xuân Quan,105.9188639,20.9694072,POINT
5610000249,nodes,WinMart+,105.9276382,20.9729489,POINT
4712969789,nodes,,105.9117762,20.9750222,POINT
6581045085,nodes,Nhà Hàng Ando,105.9121884,20.9746321,POINT
5485799524,nodes,Điện Máy Xanh,105.9201497,20.9829788,POINT
4143972907,nodes,Gốm Sứ Cao Cấp Vũ Linh,105.916318,20.9809518,POINT
4698571438,nodes,Noodle soup,105.9159512,20.9807135,POINT
5485793647,nodes,Thế giới di động,105.9305191,20.9861648,POINT
5227122539,nodes,Nhà Hàng Matto,105.8531266,21.0347863,POINT
6518159595,nodes,Tiem Com Mot Ngay Moi,105.8533683,21.0347667,POINT
10250353711,nodes,garden houde 2,105.8534076,21.0346822,POINT
6049182299,nodes,Phở Thật,105.8522189,21.0380367,POINT
4437513192,nodes,Du Lịch Ethnic,105.8524751,21.0379379,POINT
4713531289,nodes,Ẩm Thực Sành Ăn,105.8526198,21.03756,POINT
7236967785,nodes,,105.8517516,21.0372265,POINT
5332605125,nodes,,105.8532441,21.0354212,POINT
4790977322,nodes,Tạp phẩm,105.8534607,21.0354566,POINT
6640326787,nodes,Nhà Hàng Local,105.8530643,21.0353644,POINT
4869029621,nodes,,105.8534398,21.0353277,POINT
4368841789,nodes,Cửa Hàng Xe Máy Hanoi Motorbikes,105.853097,21.0352304,POINT
7164278811,nodes,Art Pho,105.852053,21.0352911,POINT
4327528195,nodes,X-Lab,105.8524664,21.0353318,POINT
6445137988,nodes,Outsiders manufacters,105.8525121,21.0353027,POINT
7164305620,nodes,Phuc Lam,105.8520775,21.0351875,POINT
7164329169,nodes,Xoài Xoài,105.8520958,21.0352177,POINT
4295458892,nodes,Nhà Hàng Hot Pot BBQ,105.8519929,21.0351984,POINT
9931504437,nodes,,105.8518347,21.0356305,POINT
4327575691,nodes,Nhà Hàng Cari Trường,105.8518172,21.0357394,POINT
723642240,nodes,Nhà Hàng Ladybird,105.8515631,21.0357539,POINT
4566446896,nodes,,105.8519169,21.035885,POINT
7164330038,nodes,Nhà Hàng Green Farm,105.8528077,21.0357504,POINT
4790970123,nodes,Quán nước,105.853318,21.0356477,POINT
7168579669,nodes,Nhà Hàng Minh Chay,105.8534559,21.0356491,POINT
4790970122,nodes,Tạp hoá,105.85329,21.0357154,POINT
5426833821,nodes,,105.8532632,21.0357597,POINT
4150844990,nodes,Nhà Hàng Linh's Kitchen,105.8532485,21.035829,POINT
4704577089,nodes,Du Lịch Get Up And Go,105.8526831,21.0360042,POINT
2859940471,nodes,Du Lịch Adventure Indochina,105.8527852,21.0359602,POINT
4790991621,nodes,Mỹ Phẩm Thanh Hằng,105.8532053,21.0359047,POINT
9931481409,nodes,,105.853286,21.0359884,POINT
4941557421,nodes,,105.853096,21.0359667,POINT
4295590991,nodes,ATM Travel Agency,105.852858,21.0361142,POINT
6142520285,nodes,Nhà Hàng Garden House 2,105.8524806,21.0361022,POINT
7071622085,nodes,,105.8524179,21.0360953,POINT
9931533821,nodes,,105.85237,21.0361113,POINT
4634652689,nodes,Nhà Hàng Frozen Yogurt,105.8521724,21.0360877,POINT
4315381190,nodes,Trung Tâm Chăm Sóc Sắc Đẹp Hi Spa,105.8521013,21.0360693,POINT
6185342489,nodes,,105.8523268,21.0360094,POINT
4566446897,nodes,Cửa Hàng Bún Chả Hương Liên,105.851812,21.0359942,POINT
4678138390,nodes,Nhà Hàng Kebab King,105.851772,21.0359839,POINT
4358622593,nodes,Nhà Hàng Foodshop 45 - Indian Cuisine,105.8518953,21.0360158,POINT
4358175599,nodes,Cửa Hàng Bánh Mì Bon Bon,105.8520284,21.0360503,POINT
4352139989,nodes,Nước ép trai cay tuổi Nguyễn chat,105.8529993,21.0363923,POINT
7226655885,nodes,,105.85277,21.0366122,POINT
5606336522,nodes,,105.8531866,21.036569,POINT
10779680205,nodes,Cau man,105.8526413,21.0363224,POINT
4295603189,nodes,Pateta,105.8528166,21.0361773,POINT
6276228786,nodes,,105.8530491,21.0361411,POINT
5157320428,nodes,,105.852911,21.0367047,POINT
5995157487,nodes,,105.8529365,21.0366235,POINT
10279649409,nodes,,105.8528035,21.0366317,POINT
4748668623,nodes,,105.8526544,21.0367528,POINT
7052244688,nodes,,105.8527951,21.0368065,POINT
7270895685,nodes,,105.8529942,21.0368556,POINT
6634628785,nodes,,105.8525029,21.0367466,POINT
6649221950,nodes,Style Motorbikes,105.8519958,21.0367039,POINT
7052260187,nodes,,105.8524722,21.0369385,POINT
7200180178,nodes,,105.8523568,21.0370901,POINT
4570650495,nodes,Nhat Mon,105.8514752,21.0364559,POINT
6649567585,nodes,,105.8513248,21.0364969,POINT
4273072590,nodes,,105.851346,21.0358291,POINT
4748673724,nodes,,105.8513435,21.0358283,POINT
4486842491,nodes,,105.8514477,21.0358622,POINT
4627346590,nodes,Du Lịch Friends,105.8514679,21.0358698,POINT
7012076142,nodes,Nhà Hàng Mai Ly 63,105.8514568,21.03572,POINT
6029974185,nodes,The Note Cafe,105.8508607,21.0315876,POINT
5713823886,nodes,Circle K,105.8506699,21.0316803,POINT
6090122085,nodes,Cửa Hàng Thời Trang Ginkgo,105.8499424,21.0317201,POINT
5502430921,nodes,,105.8500879,21.0318084,POINT
10293434911,nodes,Coba Bakery,105.8501442,21.0319179,POINT
4434758591,nodes,Viettel,105.8508268,21.0318546,POINT
721788305,nodes,Nhà Hàng Little Hanoi,105.850937,21.0321895,POINT
3490142794,nodes,Cửa Hàng Thời Trang Lụa Đức Lợi,105.8500395,21.0320067,POINT
9846594217,nodes,,105.8506536,21.0323348,POINT
4917013021,nodes,Tam han,105.8508818,21.0324613,POINT
4510768793,nodes,,105.8502902,21.032593,POINT
4739119247,nodes,,105.8500332,21.0327865,POINT
7106402985,nodes,,105.8503043,21.0329325,POINT
5749787622,nodes,,105.8505402,21.0327774,POINT
4739350321,nodes,Nhà Hàng L'amore,105.8503828,21.0328009,POINT
4572907891,nodes,,105.8499668,21.0330172,POINT
998227583,nodes,Nhà Hàng Green Mango,105.8498165,21.0329639,POINT
7162745075,nodes,Spa,105.8513193,21.0348935,POINT
7162737583,nodes,Thanh Thái,105.8512352,21.0348589,POINT
4728815204,nodes,Siêu Thị Easy Mart,105.8512213,21.0339523,POINT
7168914497,nodes,,105.8499647,21.0338014,POINT
5398575921,nodes,,105.8498211,21.03405,POINT
5587509022,nodes,,105.8501864,21.0332755,POINT
4841588840,nodes,,105.8501464,21.0334266,POINT
7168914231,nodes,,105.8500191,21.0336151,POINT
4295432191,nodes,The Sinh Cafe Tourist,105.8501772,21.0335885,POINT
4489385889,nodes,Chợ Đêm Hàng Đào – Đồng Xuân,105.8509571,21.0335078,POINT
7168893803,nodes,,105.850749,21.0336607,POINT
7192629786,nodes,,105.8508671,21.0334401,POINT
4571849690,nodes,,105.851911,21.0333313,POINT
969250552,nodes,,105.851798,21.0338828,POINT
7244252685,nodes,S cafe,105.851847,21.0344524,POINT
5137057424,nodes,,105.8515999,21.0347561,POINT
5980916092,nodes,The Sinh Tourist,105.8517757,21.0347675,POINT
5255729721,nodes,,105.8518438,21.0348427,POINT
723642233,nodes,The King Cafe,105.8515895,21.0348473,POINT
4728772716,nodes,shop hồng anh,105.8517205,21.0348496,POINT
6176888285,nodes,Cà Phê & Nhà Hàng Downtown,105.852924,21.0329887,POINT
4242831484,nodes,Nhà Hàng Gia Ngu,105.8525285,21.0331038,POINT
6187334685,nodes,Nhà Hàng 96,105.8524367,21.0331053,POINT
4605756989,nodes,Thanh Hop restaurant,105.8519038,21.0331243,POINT
9671646479,nodes,Fashion Lan Anh,105.8519963,21.0331298,POINT
4382897391,nodes,,105.8520233,21.033123,POINT
9671666163,nodes,,105.8518896,21.0330115,POINT
5518544127,nodes,,105.8519865,21.0329202,POINT
4748084125,nodes,Cửa Hàng Bia Minh,105.8518481,21.0329231,POINT
9671646478,nodes,Uaza,105.8518659,21.0328789,POINT
4323261191,nodes,Sinh cafe tourist,105.8519882,21.0328605,POINT
9671646480,nodes,,105.8518643,21.0327883,POINT
9671646481,nodes,,105.851852,21.0327249,POINT
4768909737,nodes,anh hiển,105.8529315,21.0327358,POINT
997997579,nodes,,105.8529571,21.0329186,POINT
7176894743,nodes,,105.8530751,21.0326348,POINT
7176879574,nodes,,105.8529075,21.0323165,POINT
7966645588,nodes,Pho ga ta,105.8530205,21.0322476,POINT
5070808521,nodes,,105.8531161,21.0321155,POINT
4753941522,nodes,30 cầu gỗ,105.8533404,21.0319861,POINT
7644944385,nodes,Nhà Hàng Long Vi Dung,105.853245,21.0320367,POINT
4639673391,nodes,nom thit bo kho,105.853246,21.0320462,POINT
5510010523,nodes,Nhà Hàng Linh Vy,105.8529438,21.0321531,POINT
998227534,nodes,Siêu Thị Hapro,105.8523953,21.0321684,POINT
963612001,nodes,Thai Express,105.8520062,21.0320513,POINT
5044649521,nodes,Wrap & Roll,105.8528152,21.0318899,POINT
7178803505,nodes,Cửa Hàng Đồ Thủ Công Mỹ Nghệ,105.8533446,21.0316916,POINT
7085261327,nodes,Cửa Hàng Bán Vé Hanoi City Tour Bus,105.8519327,21.0316764,POINT
9696927317,nodes,Ari Mochi,105.8533945,21.0313477,POINT
11252565567,nodes,,105.8578341,20.8481387,POINT
11252565564,nodes,,105.8558998,20.8548233,POINT
9593887399,nodes,Trường THCS Mỹ Hưng,105.7989751,20.9013062,POINT
